"locator_domain","page_url","location_name","street_address","city","state","zip","country_code","store_number","phone","location_type","latitude","longitude","hours_of_operation"
"lids.com","https://lids.com/store/lids-tanger-pittsburgh/sd-27082742+z-9720328-189101376","Lids Tanger Pittsburgh 5858","2200 Tanger Blvd  SPC340","Washington","PA","15301","US","5858","724-222-0534","Lids","40.2164404","-80.2112921","Sun: 11:00 AM-7:00 PM; Mon: 10:00 AM-9:00 PM; Tue: 10:00 AM-9:00 PM; Wed: 10:00 AM-9:00 PM; Thu: 10:00 AM-9:00 PM; Fri: 10:00 AM-9:00 PM; Sat: 10:00 AM-9:00 PM"
"lids.com","https://lids.com/store/lids-south-hills-village/sd-16288380+z-9386657-3586919085","Lids South Hills Village 5652","301 S Hills Village SP2213A","Pittsburgh","PA","15241","US","5652","412-831-1965","Lids","40.341132","-80.053253","Sun: 11:00 AM-6:00 PM; Mon: 10:00 AM-9:00 PM; Tue: 10:00 AM-9:00 PM; Wed: 10:00 AM-9:00 PM; Thu: 10:00 AM-9:00 PM; Fri: 10:00 AM-9:00 PM; Sat: 10:00 AM-9:00 PM"
"lids.com","https://lids.com/store/macys-locker-room-by-lids-south-hills-village/sd-35018618+z-9811535-779111601","Macy's Locker Room by LIDS 2187","100 SOUTH HILLS VILLAGE","Bethel Park","PA","15241","US","2187","<MISSING>","Macy's Locker Room by LIDS","40.343425","-80.055587","Sun: 11:00 AM-6:00 PM; Mon: 10:00 AM-9:00 PM; Tue: 10:00 AM-9:00 PM; Wed: 10:00 AM-9:00 PM; Thu: 10:00 AM-9:00 PM; Fri: 10:00 AM-9:00 PM; Sat: 10:00 AM-9:00 PM"
"lids.com","https://lids.com/store/lids-morgantown/sd-1443+z-901213647-2048386065","Lids Morgantown 39","9721 Mall Rd","Morgantown","WV","26501","US","39","304-983-6150","Lids","39.6247207","-79.9922574","Sun: 11:00 AM-7:00 PM; Mon: 10:00 AM-9:00 PM; Tue: 10:00 AM-9:00 PM; Wed: 10:00 AM-9:00 PM; Thu: 10:00 AM-9:00 PM; Fri: 10:00 AM-9:00 PM; Sat: 10:00 AM-9:00 PM"
"lids.com","https://lids.com/store/macys-locker-room-by-lids-monroeville-mall/sd-35560819+z-833810-762834173","Macy's Locker Room by LIDS Monroeville Mall 2188","400 MONROEVILLE MALL","Monroeville","PA","15146","US","2188","<MISSING>","Macy's Locker Room by LIDS","40.427296","-79.791428","Sun: 11:00 AM-6:00 PM; Mon: 10:00 AM-9:00 PM; Tue: 10:00 AM-9:00 PM; Wed: 10:00 AM-9:00 PM; Thu: 10:00 AM-9:00 PM; Fri: 10:00 AM-9:00 PM; Sat: 10:00 AM-9:00 PM"
"lids.com","https://lids.com/store/locker-room-by-lids-monroeville-mall/sd-20672958+z-9833210-3560071255","Locker Room by LIDS Monroeville Mall 8173","163 Monroeville Mall SP A12","Monroeville","PA","15146","US","8173","412-373-1125","Locker Room by LIDS","40.4313133","-79.7962378","Sun: 12:00 PM-6:00 PM; Mon: 11:00 AM-8:00 PM; Tue: 11:00 AM-8:00 PM; Wed: 11:00 AM-8:00 PM; Thu: 11:00 AM-8:00 PM; Fri: 11:00 AM-8:00 PM; Sat: 11:00 AM-8:00 PM"
"lids.com","https://lids.com/store/lids-monroeville-mall/sd-72720689+z-862104-2995965751","Lids Monroeville Mall 5561","12 Monroeville Ctr SP812","Monroeville","PA","15146","US","5561","412-373-3888","Lids","40.430553","-79.792446","Sun: 12:00 PM-6:00 PM; Mon: 11:00 AM-8:00 PM; Tue: 11:00 AM-8:00 PM; Wed: 11:00 AM-8:00 PM; Thu: 11:00 AM-8:00 PM; Fri: 11:00 AM-8:00 PM; Sat: 11:00 AM-8:00 PM"
"lids.com","https://lids.com/store/lids-plaza-at-robinson-town-centre/sd-348424+z-93934476-2351929950","Lids Plaza At Robinson Town Centre 162","100 Robinson Centre Dr 2310","Pittsburgh","PA","15205","US","162","412-490-0872","Lids","40.454458","-80.157709","Sun: 11:00 AM-5:00 PM; Mon: 10:00 AM-9:00 PM; Tue: 10:00 AM-9:00 PM; Wed: 10:00 AM-9:00 PM; Thu: 10:00 AM-9:00 PM; Fri: 10:00 AM-9:00 PM; Sat: 10:00 AM-9:30 PM"
"lids.com","https://lids.com/store/macys-locker-room-by-lids-the-mall-at-robinson/sd-24013299+z-9402876-3396836250","Macy's Locker Room by LIDS 2190","3000 ROBINSONS CENTRE DRIVE","Pittsburgh","PA","15205","US","2190","<MISSING>","Macy's Locker Room by LIDS","40.456502","-80.15878","Sun: 11:00 AM-6:00 PM; Mon: 10:00 AM-9:00 PM; Tue: 10:00 AM-9:00 PM; Wed: 10:00 AM-9:00 PM; Thu: 10:00 AM-9:00 PM; Fri: 10:00 AM-9:00 PM; Sat: 10:00 AM-9:00 PM"
"lids.com","https://lids.com/store/lids-pittsburgh-intl-airport/sd-95554136+z-881658-1083389314","Lids Pittsburgh Intl Airport 6073","1000 Airport Blvd","Pittsburgh","PA","15231","US","6073","412-472-1004","Lids","40.495772","-80.241311","Sun: 7:00 AM-5:00 PM; Mon: 7:00 AM-5:00 PM; Tue: 7:00 AM-5:00 PM; Wed: 7:00 AM-5:00 PM; Thu: 7:00 AM-5:00 PM; Fri: 7:00 AM-5:00 PM; Sat: 7:00 AM-5:00 PM"
"lids.com","https://lids.com/store/macys-locker-room-by-lids-ross-park-mall/sd-35441243+z-9465161-3501458365","Macy's Locker Room by LIDS Ross Park Mall 2019","1004 Ross Park Mall Dr","Pittsburgh","PA","15237","US","2019","<MISSING>","Macy's Locker Room by LIDS","40.540622","-80.008232","Sun: 11:00 AM-6:00 PM; Mon: 10:00 AM-9:00 PM; Tue: 10:00 AM-9:00 PM; Wed: 10:00 AM-9:00 PM; Thu: 10:00 AM-9:00 PM; Fri: 10:00 AM-9:00 PM; Sat: 10:00 AM-9:00 PM"
"lids.com","https://lids.com/store/lids-ross-park-mall/sd-49112021+z-9502054-4221513906","Lids Ross Park Mall 5089","1000 Ross Park Mall Dr","Pittsburgh","PA","15237","US","5089","412-366-3720","Lids","40.5445685","-80.0087509","Sun: 11:00 AM-6:00 PM; Mon: 10:00 AM-9:00 PM; Tue: 10:00 AM-9:00 PM; Wed: 10:00 AM-9:00 PM; Thu: 10:00 AM-9:00 PM; Fri: 10:00 AM-9:00 PM; Sat: 10:00 AM-9:00 PM"
"lids.com","https://lids.com/store/lids-ohio-valley/sd-4894+z-81160974-3896848926","Lids Ohio Valley 45","67800 Mall Rd, 615","St Clairsville","OH","43950","US","45","740-699-0160","Lids","40.071083","-80.865861","Sun: 11:00 AM-6:00 PM; Mon: 10:00 AM-9:00 PM; Tue: 10:00 AM-9:00 PM; Wed: 10:00 AM-9:00 PM; Thu: 10:00 AM-9:00 PM; Fri: 10:00 AM-9:00 PM; Sat: 10:00 AM-9:00 PM"
"lids.com","https://lids.com/store/lids-meadowbrook/sd-4815+z-84491414-2310949422","Lids Meadowbrook 44","2399 Meadow Brook Rd Sp375","Bridgeport","WV","26330","US","44","304-842-0700","Lids","39.310053","-80.278443","Sun: 11:00 AM-6:00 PM; Mon: 10:00 AM-9:00 PM; Tue: 10:00 AM-9:00 PM; Wed: 10:00 AM-9:00 PM; Thu: 10:00 AM-9:00 PM; Fri: 10:00 AM-9:00 PM; Sat: 10:00 AM-9:00 PM"
"lids.com","https://lids.com/store/macys-locker-room-by-lids-southern-park-mall/sd-35274755+z-9489562-3877387812","Macy's Locker Room by LIDS 2530","7401 MARKET STREET","Youngstown","OH","44512","US","2530","<MISSING>","Macy's Locker Room by LIDS","41.021458","-80.660332","Sun: 11:00 AM-6:00 PM; Mon: 10:00 AM-9:00 PM; Tue: 10:00 AM-9:00 PM; Wed: 10:00 AM-9:00 PM; Thu: 10:00 AM-9:00 PM; Fri: 10:00 AM-9:00 PM; Sat: 10:00 AM-9:00 PM"
"lids.com","https://lids.com/store/lids-southern-park-mall/sd-94464147+z-800260-2641630622","Lids Southern Park Mall 5273","7401 Market St 305","Youngstown","OH","44512","US","5273","330-629-8234","Lids","41.021458","-80.660332","Sun: 11:00 AM-7:00 PM; Mon: 10:00 AM-9:00 PM; Tue: 10:00 AM-9:00 PM; Wed: 10:00 AM-9:00 PM; Thu: 10:00 AM-9:00 PM; Fri: 10:00 AM-9:00 PM; Sat: 9:00 AM-9:00 PM"
"lids.com","https://lids.com/store/lids-grove-city-premium-outlets/sd-28035666+z-887757-2354638828","Lids Grove City Premium Outlets 6310","1911 Lessburg-Grove City Rd","Grove City","PA","16127","US","6310","724-748-0195","Lids","41.139753","-80.157358","Sun: 10:00 AM-7:00 PM; Mon: 10:00 AM-9:00 PM; Tue: 10:00 AM-9:00 PM; Wed: 10:00 AM-9:00 PM; Thu: 10:00 AM-9:00 PM; Fri: 10:00 AM-9:00 PM; Sat: 10:00 AM-9:00 PM"
"lids.com","https://lids.com/store/lids-logan-valley-mall/sd-38473722+z-9626337-526553180","Lids Logan Valley Mall 5340","5580 Goods Ln Ste 1112","Altoona","PA","16601","US","5340","814-944-2083","Lids","40.469451","-78.408938","Sun: 12:00 PM-5:00 PM; Mon: 11:00 AM-8:00 PM; Tue: 11:00 AM-8:00 PM; Wed: 11:00 AM-8:00 PM; Thu: 11:00 AM-8:00 PM; Fri: 11:00 AM-8:00 PM; Sat: 11:00 AM-8:00 PM"
"lids.com","https://lids.com/store/macys-locker-room-by-lids-belden-village/sd-13016435+z-9893886-262768197","Macy's Locker Room by LIDS Belden Village 2182","4300 BELDEN VILLAGE AVENUE","Canton","OH","44718","US","2182","<MISSING>","Macy's Locker Room by LIDS","40.8565389","-81.4275948","Sun: 11:00 AM-6:00 PM; Mon: 10:00 AM-9:00 PM; Tue: 10:00 AM-9:00 PM; Wed: 10:00 AM-9:00 PM; Thu: 10:00 AM-9:00 PM; Fri: 10:00 AM-9:00 PM; Sat: 10:00 AM-9:00 PM"
"lids.com","https://lids.com/store/lids-belden-village/sd-38047669+z-9171506-183389105","Lids Belden Village 5493","4230 Belden Village Mall, Spk1","Canton","OH","44718","US","5493","330-244-1652","Lids","40.856921","-81.427555","Sun: 12:00 PM-6:00 PM; Mon: 11:00 AM-8:00 PM; Tue: 11:00 AM-8:00 PM; Wed: 11:00 AM-8:00 PM; Thu: 11:00 AM-8:00 PM; Fri: 11:00 AM-8:00 PM; Sat: 11:00 AM-8:00 PM"
"lids.com","https://lids.com/store/fanzz-belden-village-mall/sd-19691473+z-9280068-1790599238","Fanzz Belden Village Mall 8336","4230 Belden Village Mall Ci NW SPB1","Canton","OH","44718","US","8336","330-493-0641","Fanzz","40.8571359","-81.4278041","Sun: 12:00 PM-6:00 PM; Mon: 11:00 AM-8:00 PM; Tue: 11:00 AM-8:00 PM; Wed: 11:00 AM-8:00 PM; Thu: 11:00 AM-8:00 PM; Fri: 11:00 AM-8:00 PM; Sat: 11:00 AM-8:00 PM"
"lids.com","https://lids.com/store/lids-apple-blossom-mall/sd-2174+z-996308366-2775832579","Lids Apple Blossom Mall 97","1850 Apple Blossom Dr SPN139","Winchester","VA","22601","US","97","540-665-9004","Lids","39.183739","-78.167431","Sun: 10:00 AM-9:00 PM; Mon: 10:00 AM-9:00 PM; Tue: 10:00 AM-9:00 PM; Wed: 10:00 AM-9:00 PM; Thu: 10:00 AM-9:00 PM; Fri: 10:00 AM-9:00 PM; Sat: 10:00 AM-9:00 PM"
"lids.com","https://lids.com/store/lids-summit-mall/sd-27727522+z-9743996-3243599108","Lids Summit Mall 5580","3265 W Market St SP200","Fairlawn","OH","44333","US","5580","330-865-5885","Lids","41.134159","-81.617821","Sun: 11:00 AM-7:00 PM; Mon: 10:00 AM-9:00 PM; Tue: 10:00 AM-9:00 PM; Wed: 10:00 AM-9:00 PM; Thu: 10:00 AM-9:00 PM; Fri: 10:00 AM-9:00 PM; Sat: 10:00 AM-9:00 PM"
"lids.com","https://lids.com/store/macys-locker-room-by-lids-summit-mall/sd-35720028+z-879666-1806354243","Macy's Locker Room by LIDS Summit Mall 2506","3265 WEST MARKET STREET","Akron","OH","44333","US","2506","<MISSING>","Macy's Locker Room by LIDS","41.134159","-81.617821","Sun: 11:00 AM-6:00 PM; Mon: 10:00 AM-9:00 PM; Tue: 10:00 AM-9:00 PM; Wed: 10:00 AM-9:00 PM; Thu: 10:00 AM-9:00 PM; Fri: 10:00 AM-9:00 PM; Sat: 10:00 AM-9:00 PM"
"lids.com","https://lids.com/store/lids-hagerstown-premium-outlets/sd-28810123+z-9864175-3242746351","Lids Hagerstown Premium Outlets 6311","495 Premium Outlets Blvd  663","Hagerstown","MD","21740","US","6311","240-313-9045","Lids","39.6069966","-77.7343722","Sun: 10:00 AM-9:00 PM; Mon: 10:00 AM-9:00 PM; Tue: 10:00 AM-9:00 PM; Wed: 10:00 AM-9:00 PM; Thu: 10:00 AM-9:00 PM; Fri: 10:00 AM-9:00 PM; Sat: 10:00 AM-9:00 PM"
"lids.com","https://lids.com/store/locker-room-by-lids-beachwood-mall/sd-31356664+z-844686-263307642","Locker Room by LIDS Beachwood Mall 8208","26300 Cedar Road SP1","BEACHWOOD","OH","44122","US","8208","216-514-7904","Locker Room by LIDS","41.498555","-81.494339","Sun: 12:00 PM-6:00 PM; Mon: 11:00 AM-8:00 PM; Tue: 11:00 AM-8:00 PM; Wed: 11:00 AM-8:00 PM; Thu: 11:00 AM-8:00 PM; Fri: 11:00 AM-8:00 PM; Sat: 11:00 AM-8:00 PM"
"lids.com","https://lids.com/store/locker-room-by-lids-southpark/sd-31807890+z-9668485-1044802398","Locker Room by LIDS Southpark 8211","500 Southpark Center SP1","STRONGSVILLE","OH","44136","US","8211","440-268-9255","Locker Room by LIDS","41.3084566","-81.8202549","Sun: 12:00 PM-6:00 PM; Mon: 11:00 AM-8:00 PM; Tue: 11:00 AM-8:00 PM; Wed: 11:00 AM-8:00 PM; Thu: 11:00 AM-8:00 PM; Fri: 11:00 AM-8:00 PM; Sat: 11:00 AM-8:00 PM"
"lids.com","https://lids.com/store/macys-locker-room-by-lids-southpark/sd-35903160+z-9128644-203032454","Macy's Locker Room by LIDS Southpark 2184","17447 ROYALTON ROAD","Strongsville","OH","44136","US","2184","<MISSING>","Macy's Locker Room by LIDS","41.31298","-81.819014","Sun: 11:00 AM-6:00 PM; Mon: 10:00 AM-9:00 PM; Tue: 10:00 AM-9:00 PM; Wed: 10:00 AM-9:00 PM; Thu: 10:00 AM-9:00 PM; Fri: 10:00 AM-9:00 PM; Sat: 10:00 AM-9:00 PM"
"lids.com","https://lids.com/store/lids-southpark/sd-61593018+z-804796-3652220409","Lids Southpark 5477","500 Spark Ctr, Sp Bl 248","Strongsville","OH","44136","US","5477","440-238-8103","Lids","41.319826","-81.811505","Sun: 12:00 PM-6:00 PM; Mon: 11:00 AM-8:00 PM; Tue: 11:00 AM-8:00 PM; Wed: 11:00 AM-8:00 PM; Thu: 11:00 AM-8:00 PM; Fri: 11:00 AM-8:00 PM; Sat: 11:00 AM-8:00 PM"
"lids.com","https://lids.com/store/lids-great-lakes-mall/sd-49223197+z-9331461-547475042","Lids Great Lakes Mall 5088","7850 Mentor Ave K12","Mentor","OH","44060","US","5088","440-974-9127","Lids","41.6572311","-81.3613228","Sun: 11:00 AM-7:00 PM; Mon: 10:00 AM-9:00 PM; Tue: 10:00 AM-9:00 PM; Wed: 10:00 AM-9:00 PM; Thu: 10:00 AM-9:00 PM; Fri: 10:00 AM-9:00 PM; Sat: 9:00 AM-10:00 PM"
"lids.com","https://lids.com/store/macys-locker-room-by-lids-great-lakes-mall/sd-24346461+z-9595503-715996317","Macy's Locker Room by LIDS Great Lakes Mall 2185","7850 MENTOR AVENUE","Mentor","OH","44060","US","2185","<MISSING>","Macy's Locker Room by LIDS","41.657932","-81.361313","Sun: 11:00 AM-6:00 PM; Mon: 10:00 AM-9:00 PM; Tue: 10:00 AM-9:00 PM; Wed: 10:00 AM-9:00 PM; Thu: 10:00 AM-9:00 PM; Fri: 10:00 AM-9:00 PM; Sat: 10:00 AM-9:00 PM"
"lids.com","https://lids.com/store/locker-room-by-lids-great-northern/sd-20687835+z-9414444-2977248464","Locker Room by LIDS Great Northern 8212","790 Great Northern Mall Blvd","NORTH OLMSTED","OH","44070","US","8212","440-716-8186","Locker Room by LIDS","41.415273","-81.905333","Sun: 12:00 PM-6:00 PM; Mon: 11:00 AM-8:00 PM; Tue: 11:00 AM-8:00 PM; Wed: 11:00 AM-8:00 PM; Thu: 11:00 AM-8:00 PM; Fri: 11:00 AM-8:00 PM; Sat: 11:00 AM-8:00 PM"
"lids.com","https://lids.com/store/lids-great-northern/sd-16464797+z-9403025-1438387383","Lids Great Northern 5238","577 Great Northern Mall 102","N. Olmsted","OH","44070","US","5238","440-779-4998","Lids","41.416812","-81.906414","Sun: 12:00 PM-6:00 PM; Mon: 11:00 AM-8:00 PM; Tue: 11:00 AM-8:00 PM; Wed: 11:00 AM-8:00 PM; Thu: 11:00 AM-8:00 PM; Fri: 11:00 AM-8:00 PM; Sat: 11:00 AM-8:00 PM"
"lids.com","https://lids.com/store/macys-locker-room-by-lids-great-northern/sd-79345362+z-846704-746849653","Macy's Locker Room by LIDS Great Northern 2186","25801 BROOKPARK ROAD","North Olmsted","OH","44070","US","2186","<MISSING>","Macy's Locker Room by LIDS","41.416904","-81.907897","Sun: 11:00 AM-6:00 PM; Mon: 10:00 AM-9:00 PM; Tue: 10:00 AM-9:00 PM; Wed: 10:00 AM-9:00 PM; Thu: 10:00 AM-9:00 PM; Fri: 10:00 AM-9:00 PM; Sat: 10:00 AM-9:00 PM"
"lids.com","https://lids.com/store/lids-charleston-town-center/sd-49349300+z-844407-331416948","Lids Charleston Town Center 5140","2029 Charleston Town Cir","Charleston","WV","25389","US","5140","304-343-9932","Lids","38.43844","-81.763793","Sun: 12:30 PM-6:00 PM; Mon: 10:00 AM-8:00 PM; Tue: 10:00 AM-8:00 PM; Wed: 10:00 AM-8:00 PM; Thu: 10:00 AM-8:00 PM; Fri: 10:00 AM-8:00 PM; Sat: 10:00 AM-8:00 PM"
"lids.com","https://lids.com/store/lids-mill-creek/sd-890104+z-8408058-253090799","Lids Mill Creek 114","654 Mill Creek Rd 525","Erie","PA","16565","US","114","814-868-1944","Lids","42.075049","-80.052119","Sun: 11:00 AM-6:00 PM; Mon: 10:00 AM-9:00 PM; Tue: 10:00 AM-9:00 PM; Wed: 10:00 AM-9:00 PM; Thu: 10:00 AM-9:00 PM; Fri: 10:00 AM-9:00 PM; Sat: 10:00 AM-10:00 PM"
"lids.com","https://lids.com/store/fanatics-by-lids-leesburg-corner/sd-20946827+z-9368485-894785827","Fanatics by Lids Leesburg Corner 8525","241 Fort Evans Rd SP1641","Leesburg","VA","20176","US","8525","571-457-6959","Lids","39.1055544","-77.5391308","Sun: 10:00 AM-7:00 PM; Mon: 10:00 AM-9:00 PM; Tue: 10:00 AM-9:00 PM; Wed: 10:00 AM-9:00 PM; Thu: 10:00 AM-9:00 PM; Fri: 10:00 AM-9:00 PM; Sat: 10:00 AM-9:00 PM"
"lids.com","https://lids.com/store/macys-locker-room-by-lids-richland-mall/sd-91057805+z-886477-2146384508","Macy's Locker Room by LIDS Richland Mall 2515","655 RICHLAND MALL","Mansfield","OH","44906","US","2515","<MISSING>","Macy's Locker Room by LIDS","40.770074","-82.594571","Sun: 11:00 AM-7:00 PM; Mon: 11:00 AM-7:00 PM; Tue: 11:00 AM-7:00 PM; Wed: 11:00 AM-7:00 PM; Thu: 11:00 AM-7:00 PM; Fri: 11:00 AM-7:00 PM; Sat: 11:00 AM-8:00 PM"
"lids.com","https://lids.com/store/lids-dulles-town-center/sd-16752428+z-870718-1245605243","Lids Dulles Town Center 5826","21100 Dulles Town Circle C122A","Dulles","VA","20166","US","5826","703-433-2348","Lids","39.031866","-77.423461","Sun: 11:00 AM-7:00 PM; Mon: 10:00 AM-9:00 PM; Tue: 10:00 AM-9:00 PM; Wed: 10:00 AM-9:00 PM; Thu: 10:00 AM-9:00 PM; Fri: 10:00 AM-9:00 PM; Sat: 10:00 AM-9:00 PM"
"lids.com","https://lids.com/store/lids-eastland-mall/sd-16683216+z-848610-3209693434","Lids Eastland Mall 5295","4231 Eastland Food Ct SpD60","Columbus","OH","43232","US","5295","614-577-1176","Lids","39.9186193","-82.8838065","Sun: 12:00 PM-6:00 PM; Mon: 11:00 AM-8:00 PM; Tue: 11:00 AM-8:00 PM; Wed: 11:00 AM-8:00 PM; Thu: 11:00 AM-8:00 PM; Fri: 11:00 AM-8:00 PM; Sat: 11:00 AM-8:00 PM"
"lids.com","https://lids.com/store/fanatics-by-lids-clarksburg-premium/sd-20492381+z-9693164-2101098797","Fanatics by Lids Clarksburg Premium 8513","22705 Clarksburg Rd SP726","Clarksburg","MD","20871","US","8513","202-309-4689","Lids","39.2267644","-77.288578","Sun: 10:00 AM-7:00 PM; Mon: 10:00 AM-9:00 PM; Tue: 10:00 AM-9:00 PM; Wed: 10:00 AM-9:00 PM; Thu: 10:00 AM-9:00 PM; Fri: 10:00 AM-9:00 PM; Sat: 10:00 AM-9:00 PM"
"lids.com","https://lids.com/store/macys-locker-room-by-lids-easton-town-center/sd-35015227+z-9284171-848111705","Macy's Locker Room by LIDS 2175","4141 EASTON LOOP EAST","Columbus","OH","43219","US","2175","<MISSING>","Macy's Locker Room by LIDS","40.052995","-82.912606","Sun: 11:00 AM-7:00 PM; Mon: 11:00 AM-8:00 PM; Tue: 11:00 AM-8:00 PM; Wed: 11:00 AM-8:00 PM; Thu: 11:00 AM-8:00 PM; Fri: 11:00 AM-8:00 PM; Sat: 10:00 AM-8:00 PM"
"lids.com","https://lids.com/store/buckeye-corner-buckeye-corner-easton-town-center/sd-87348153+z-804068-23612702","Buckeye Corner 9138","210 Easton Town Center SPC206","Columbus","OH","43219","US","9138","614-416-2827","Buckeye Corner","40.0531415","-82.9151902","Sun: 10:00 AM-6:00 PM; Mon: 11:00 AM-9:00 PM; Tue: 11:00 AM-9:00 PM; Wed: 11:00 AM-9:00 PM; Thu: 11:00 AM-9:00 PM; Fri: 11:00 AM-9:00 PM; Sat: 11:00 AM-9:00 PM"
"lids.com","https://lids.com/store/lids-easton-town-center/sd-38475235+z-9242675-4131418023","Lids Easton Town Center 5372","107 Easton Town Ctr Sp P104","Columbus","OH","43219","US","5372","614-476-4123","Lids","40.0415191","-82.9178838","Sun: 10:00 AM-6:00 PM; Mon: 11:00 AM-9:00 PM; Tue: 11:00 AM-9:00 PM; Wed: 11:00 AM-9:00 PM; Thu: 11:00 AM-9:00 PM; Fri: 11:00 AM-9:00 PM; Sat: 11:00 AM-9:00 PM"
"lids.com","https://lids.com/store/lids-charlottesville-fashion-square/sd-4914+z-952850405-1294924788","Lids Charlottesville Fashion Square 53","1593 E Rio Rd 1219","Charlottesville","VA","22901","US","53","434-975-4904","Lids","38.08035","-78.472881","Sun: 11:00 AM-7:00 PM; Mon: 10:00 AM-9:00 PM; Tue: 10:00 AM-9:00 PM; Wed: 10:00 AM-9:00 PM; Thu: 10:00 AM-9:00 PM; Fri: 10:00 AM-9:00 PM; Sat: 10:00 AM-9:00 PM"
"lids.com","https://lids.com/store/buckeye-corner-buckeye-corner-polaris-fashion-place/sd-10897101+z-9920640-1083357286","Buckeye Corner 9141","1550 Polaris Parkway Ste 305","COLUMBUS","OH","43240","US","9141","614-846-0360","Buckeye Corner","40.141529","-82.978183","Sun: 10:00 AM-9:00 PM; Mon: 10:00 AM-9:00 PM; Tue: 10:00 AM-9:00 PM; Wed: 10:00 AM-9:00 PM; Thu: 10:00 AM-9:00 PM; Fri: 10:00 AM-9:00 PM; Sat: 10:00 AM-9:00 PM"
"lids.com","https://lids.com/store/lids-manassas-mall/sd-49109748+z-9138578-3665816912","Lids Manassas Mall 5984","8300 Sudley Rd  Unit 81","Manassas","VA","20109-3499","US","5984","703-393-1183","Lids","38.773324","-77.505326","Sun: 11:00 AM-6:00 PM; Mon: 10:00 AM-8:00 PM; Tue: 10:00 AM-8:00 PM; Wed: 10:00 AM-8:00 PM; Thu: 10:00 AM-8:00 PM; Fri: 10:00 AM-8:00 PM; Sat: 10:00 AM-8:00 PM"
"lids.com","https://lids.com/store/lids-polaris-fashion-place/sd-456260+z-710984-1231820743","Lids Polaris Fashion Place 164","1500 Polaris Park SP2124","Columbus","OH","43240","US","164","614-430-8225","Lids","40.145239","-82.981441","Sun: 11:00 AM-8:00 PM; Mon: 10:00 AM-9:00 PM; Tue: 10:00 AM-9:00 PM; Wed: 10:00 AM-9:00 PM; Thu: 10:00 AM-9:00 PM; Fri: 10:00 AM-9:00 PM; Sat: 10:00 AM-9:00 PM"
"lids.com","https://lids.com/store/locker-room-by-lids-polaris-fashion-place/sd-20117860+z-9650209-443068078","Locker Room by LIDS Polaris Fashion Place 8014","1500 Polaris Park SP1010","Columbus","OH","43240","US","8014","614-433-0607","Locker Room by LIDS","40.145239","-82.981441","Sun: 11:00 AM-8:00 PM; Mon: 10:00 AM-9:00 PM; Tue: 10:00 AM-9:00 PM; Wed: 10:00 AM-9:00 PM; Thu: 10:00 AM-9:00 PM; Fri: 10:00 AM-9:00 PM; Sat: 10:00 AM-9:00 PM"
"lids.com","https://lids.com/store/macys-locker-room-by-lids-polaris-fashion-place/sd-13349684+z-9775279-802393625","Macy's Locker Room by LIDS 2176","1300 POLARIS PKWY","Columbus","OH","43240","US","2176","<MISSING>","Macy's Locker Room by LIDS","40.144272","-82.98395","Sun: 11:00 AM-7:00 PM; Mon: 11:00 AM-8:00 PM; Tue: 11:00 AM-8:00 PM; Wed: 11:00 AM-8:00 PM; Thu: 11:00 AM-8:00 PM; Fri: 11:00 AM-8:00 PM; Sat: 10:00 AM-8:00 PM"
"lids.com","https://lids.com/store/buckeye-corner-buckeye-corner-fiesta-center/sd-32564798+z-9447725-924958945","Buckeye Corner Buckeye Corner Fiesta Center 9139","1315 West Lane Avenue Suite B","Columbus","OH","43221","US","9139","614-486-0702","Buckeye Corner","40.006341","-83.045625","Sun: 12:00 PM-5:00 PM; Mon: 11:00 AM-8:00 PM; Tue: 11:00 AM-8:00 PM; Wed: 11:00 AM-8:00 PM; Thu: 11:00 AM-8:00 PM; Fri: 11:00 AM-8:00 PM; Sat: 11:00 AM-8:00 PM"
"lids.com","https://lids.com/store/lids-fair-oaks/sd-27654513+z-9496906-4283016857","Lids Fair Oaks 5912","11925U FAIR OAKS","Fairfax","VA","22033","US","5912","703-273-6599","Lids","38.861339","-77.362022","Sun: 11:00 AM-7:00 PM; Mon: 10:00 AM-9:00 PM; Tue: 10:00 AM-9:00 PM; Wed: 10:00 AM-9:00 PM; Thu: 10:00 AM-9:00 PM; Fri: 10:00 AM-9:00 PM; Sat: 10:00 AM-9:00 PM"
"lids.com","https://lids.com/store/lids-capital-city/sd-126738+z-98111710-2217940803","Lids Capital City 115","3506 Capital City Mall Dr","Camp Hill","PA","17011","US","115","717-612-6642","Lids","40.2224268","-76.9323148","Sun: 11:00 AM-6:00 PM; Mon: 10:00 AM-9:00 PM; Tue: 10:00 AM-9:00 PM; Wed: 10:00 AM-9:00 PM; Thu: 10:00 AM-9:00 PM; Fri: 10:00 AM-9:00 PM; Sat: 10:00 AM-9:00 PM"
"lids.com","https://lids.com/store/lids-huntington/sd-9590+z-81879169-3798537298","Lids Huntington 61","500 Mall Dr SP605","Barboursville","WV","25504","US","61","304-733-5942","Lids","38.4227604","-82.2660849","Sun: 11:00 AM-6:00 PM; Mon: 10:00 AM-9:00 PM; Tue: 10:00 AM-9:00 PM; Wed: 10:00 AM-9:00 PM; Thu: 10:00 AM-9:00 PM; Fri: 10:00 AM-9:00 PM; Sat: 10:00 AM-9:00 PM"
"lids.com","https://lids.com/store/buckeye-corner-buckeye-corner-northwest-square/sd-21129322+z-9986742-814807910","Buckeye Corner 9140","6606 SAWMILL ROAD","Columbus","OH","43235","US","9140","614-764-1286","Buckeye Corner","40.102287","-83.089358","Sun: 12:00 PM-5:00 PM; Mon: 11:00 AM-8:00 PM; Tue: 11:00 AM-8:00 PM; Wed: 11:00 AM-8:00 PM; Thu: 11:00 AM-8:00 PM; Fri: 11:00 AM-8:00 PM; Sat: 8:00 AM-8:00 PM"
"lids.com","https://lids.com/store/buckeye-room-tuttle-crossing/sd-53806752+z-898212-3161674598","Buckeye Room Tuttle Crossing 8217","5043 Tuttle Crossing Blvd SP1","DUBLIN","OH","43016","US","8217","614-336-8240","Buckeye Room","40.0729815","-83.130685","Sun: 11:00 AM-6:00 PM; Mon: 10:00 AM-9:00 PM; Tue: 10:00 AM-9:00 PM; Wed: 10:00 AM-9:00 PM; Thu: 10:00 AM-9:00 PM; Fri: 10:00 AM-9:00 PM; Sat: 10:00 AM-9:00 PM"
"lids.com","https://lids.com/store/lids-tuttle-crossing/sd-38274066+z-9341749-3492260051","Lids Tuttle Crossing 5560","5043 Tuttle Crossing Blvd 242","Dublin","OH","43016","US","5560","614-761-7782","Lids","40.073278","-83.13232","Sun: 11:00 AM-6:00 PM; Mon: 10:00 AM-9:00 PM; Tue: 10:00 AM-9:00 PM; Wed: 10:00 AM-9:00 PM; Thu: 10:00 AM-9:00 PM; Fri: 10:00 AM-9:00 PM; Sat: 10:00 AM-9:00 PM"
"lids.com","https://lids.com/store/macys-locker-room-by-lids-tuttle-crossing/sd-13234158+z-9846340-2168280944","Macy's Locker Room by LIDS Tuttle Crossing 2173","5123 TUTTLE CROSSING BLVD","Dublin","OH","43016","US","2173","<MISSING>","Macy's Locker Room by LIDS","40.0725797","-83.1326697","Sun: 11:00 AM-7:00 PM; Mon: 11:00 AM-8:00 PM; Tue: 11:00 AM-8:00 PM; Wed: 11:00 AM-8:00 PM; Thu: 11:00 AM-8:00 PM; Fri: 11:00 AM-8:00 PM; Sat: 10:00 AM-8:00 PM"
"lids.com","https://lids.com/store/lids-tysons-corner/sd-39398969+z-9174927-2301220053","Tysons Corner","1961 Chain Bridge Rd  SP E17L","Tysons","VA","22102","US","6613","571-308-5760","Lids","38.9171264","-77.2222575","Sun: 11:00 AM-6:00 PM; Mon: 10:00 AM-9:00 PM; Tue: 10:00 AM-9:00 PM; Wed: 10:00 AM-9:00 PM; Thu: 10:00 AM-9:00 PM; Fri: 10:00 AM-9:00 PM; Sat: 10:00 AM-9:00 PM"
"lids.com","https://lids.com/store/lids-harrisburg-mall/sd-84788702+z-853362-722905607","Lids Harrisburg Mall 6192","3501 Paxton St SPM5A","Harrisburg","PA","17111","US","6192","717-561-2121","Lids","40.252251","-76.8299303","Sun: 11:00 AM-6:00 PM; Mon: 11:00 AM-8:00 PM; Tue: 11:00 AM-8:00 PM; Wed: 11:00 AM-8:00 PM; Thu: 11:00 AM-8:00 PM; Fri: 11:00 AM-8:00 PM; Sat: 10:00 AM-9:00 PM"
"lids.com","https://lids.com/store/lids-westfield-wheaton/sd-39836029+z-9815144-1358838840","Lids Westfield Wheaton 6547","11160 Veirs Mill Road Lvl 2","Wheaton","MD","20902","US","6547","301-933-5570","Lids","39.0367841","-77.0549716","Sun: 11:00 AM-7:00 PM; Mon: 10:00 AM-9:30 PM; Tue: 10:00 AM-9:30 PM; Wed: 10:00 AM-9:30 PM; Thu: 10:00 AM-9:30 PM; Fri: 10:00 AM-9:30 PM; Sat: 10:00 AM-9:30 PM"
"lids.com","https://lids.com/store/lids-sandusky-mall/sd-83168357+z-865674-3964200905","Lids Sandusky Mall 5552","4314 Milan Rd 530","Sandusky","OH","44870","US","5552","419-621-8742","Lids","41.418132","-82.669082","Sun: 11:00 AM-6:00 PM; Mon: 10:00 AM-9:00 PM; Tue: 10:00 AM-9:00 PM; Wed: 10:00 AM-9:00 PM; Thu: 10:00 AM-9:00 PM; Fri: 10:00 AM-9:00 PM; Sat: 10:00 AM-9:00 PM"
"lids.com","https://lids.com/store/lids-potomac-mills/sd-27790112+z-9257369-1951186184","Lids Potomac Mills 5211","2700 Potomac Mills Cir Ste 155","Woodbridge","VA","22192","US","5211","703-494-9041","Lids","38.643205","-77.295311","Sun: 11:00 AM-6:00 PM; Mon: 10:00 AM-9:00 PM; Tue: 10:00 AM-9:00 PM; Wed: 10:00 AM-9:00 PM; Thu: 10:00 AM-9:00 PM; Fri: 10:00 AM-9:00 PM; Sat: 10:00 AM-9:00 PM"
"lids.com","https://lids.com/store/lids-locker-room-potomac-mills/sd-19569550+z-9283076-667012597","Lids Locker Room Potomac Mills 8165","2700 Potomac Mills Cir SP390","Woodbridge","VA","22192","US","8165","703-490-8028","Lids Locker Room","38.643205","-77.295311","Sun: 11:00 AM-6:00 PM; Mon: 10:00 AM-9:00 PM; Tue: 10:00 AM-9:00 PM; Wed: 10:00 AM-9:00 PM; Thu: 10:00 AM-9:00 PM; Fri: 10:00 AM-9:00 PM; Sat: 10:00 AM-9:00 PM"
"lids.com","https://lids.com/store/lids-springfield-mall/sd-95158199+z-899996-228109808","Lids Springfield Mall 6430","6500 Springfield Mall SP21041","Springfield","VA","22150","US","6430","703-922-6076","Lids","38.77453","-77.174236","Sun: 11:00 AM-7:00 PM; Mon: 10:00 AM-9:00 PM; Tue: 10:00 AM-9:00 PM; Wed: 10:00 AM-9:00 PM; Thu: 10:00 AM-9:00 PM; Fri: 10:00 AM-9:00 PM; Sat: 10:00 AM-9:00 PM"
"lids.com","https://lids.com/store/lids-pentagon/sd-16831454+z-9374590-1179389897","Lids Pentagon 5539","1100 S Hayes St Sp Y3","Arlington","VA","22202","US","5539","703-415-5444","Lids","38.86394","-77.060118","Sun: 10:00 AM-9:30 PM; Mon: 10:00 AM-9:30 PM; Tue: 10:00 AM-9:30 PM; Wed: 10:00 AM-9:30 PM; Thu: 10:00 AM-9:30 PM; Fri: 10:00 AM-9:30 PM; Sat: 10:00 AM-9:30 PM"
"lids.com","https://lids.com/store/lids-the-mall-in-columbia/sd-16778195+z-9223363-2844993648","Lids The Mall In Columbia 5036","10300 Litle Patuxent Pkwy 2320","Columbia","MD","21044","US","5036","410-730-5317","Lids","39.216329","-76.860202","Sun: 12:00 PM-6:00 PM; Mon: 10:00 AM-9:00 PM; Tue: 10:00 AM-9:00 PM; Wed: 10:00 AM-9:00 PM; Thu: 10:00 AM-9:00 PM; Fri: 10:00 AM-9:00 PM; Sat: 10:00 AM-9:00 PM"
"lids.com","https://lids.com/store/lids-prince-georges-plaza/sd-27326909+z-9044770-3418088505","Lids Prince Georges Plaza 5939","3500 East West Highway SP1104","Hyattsville","MD","20782","US","5939","301-559-8580","Lids","38.967857","-76.957474","Sun: 12:00 PM-6:00 PM; Mon: 10:00 AM-9:00 PM; Tue: 10:00 AM-9:00 PM; Wed: 10:00 AM-9:00 PM; Thu: 10:00 AM-9:00 PM; Fri: 10:00 AM-9:00 PM; Sat: 10:00 AM-9:00 PM"
"lids.com","https://lids.com/store/lids-spotsylvania/sd-5166+z-81065968-1046949991","Lids Spotsylvania 60","Spotsylvania Mall 265","Fredericksburg","VA","22407","US","60","540-786-5901","Lids","38.294669","-77.515228","Sun: 11:00 AM-6:00 PM; Mon: 10:00 AM-9:00 PM; Tue: 10:00 AM-9:00 PM; Wed: 10:00 AM-9:00 PM; Thu: 10:00 AM-9:00 PM; Fri: 10:00 AM-9:00 PM; Sat: 10:00 AM-9:00 PM"
"lids.com","https://lids.com/store/lids-tanger-national-harbor/sd-95360968+z-808725-3759034204","Lids Tanger National Harbor 6392","6800 Oxon Hill Road SP704","National Harbor","MD","20745","US","6392","301-567-5895","Lids","38.795383","-77.00155","Sun: 11:00 AM-7:00 PM; Mon: 10:00 AM-8:00 PM; Tue: 10:00 AM-8:00 PM; Wed: 10:00 AM-8:00 PM; Thu: 10:00 AM-8:00 PM; Fri: 10:00 AM-8:00 PM; Sat: 10:00 AM-8:00 PM"
"lids.com","https://lids.com/store/fanatics-by-lids-arundel-mills/sd-31389236+z-9613042-3014708976","Fanatics by Lids Arundel Mills 8533","7000 Arundel Mills Circle SP137","Hanover","MD","21076","US","8533","240-856-5758","Lids","39.1578188","-76.7247068","Sun: 11:00 AM-7:00 PM; Mon: 10:00 AM-9:00 PM; Tue: 10:00 AM-9:00 PM; Wed: 10:00 AM-9:00 PM; Thu: 10:00 AM-9:00 PM; Fri: 10:00 AM-9:00 PM; Sat: 10:00 AM-9:30 PM"
"lids.com","https://lids.com/store/lids-arundel-mills/sd-16599531+z-9885215-1633634107","Lids Arundel Mills 5468","7000 Arundel Mills Cir Ent 5","Hanover","MD","21076","US","5468","443-755-9775","Lids","39.1558852","-76.7247345","Sun: 11:00 AM-7:00 PM; Mon: 10:00 AM-9:30 PM; Tue: 10:00 AM-9:30 PM; Wed: 10:00 AM-9:30 PM; Thu: 10:00 AM-9:30 PM; Fri: 10:00 AM-9:30 PM; Sat: 10:00 AM-9:30 PM"
"lids.com","https://lids.com/store/lids-mondawmin-mall/sd-39935722+z-9152141-337860215","Lids Mondawmin Mall 6420","2401 Liberty Heights Ave SP3235","BALTIMORE","MD","21215","US","6420","410-225-0162","Lids","39.317083","-76.654697","Sun: 12:00 PM-6:00 PM; Mon: 10:00 AM-9:00 PM; Tue: 10:00 AM-9:00 PM; Wed: 10:00 AM-9:00 PM; Thu: 10:00 AM-9:00 PM; Fri: 10:00 AM-9:00 PM; Sat: 10:00 AM-9:00 PM"
"lids.com","https://lids.com/store/lids-towson-town-center/sd-124960+z-92076052-2517053452","Lids Towson Town Center 154","825 Dulaney Valley Rd 1275","Baltimore","MD","21204","US","154","410-296-5522","Lids","39.4039","-76.600627","Sun: 11:00 AM-7:00 PM; Mon: 10:00 AM-9:00 PM; Tue: 10:00 AM-9:00 PM; Wed: 10:00 AM-9:00 PM; Thu: 10:00 AM-9:00 PM; Fri: 10:00 AM-9:00 PM; Sat: 10:00 AM-9:00 PM"
"lids.com","https://lids.com/store/lids-valley-view/sd-16575670+z-9005220-4231144620","Lids Valley View 5213","4802 Valley View Blvd","Roanoke","VA","24012","US","5213","540-362-3924","Lids","37.30403","-79.964281","Sun: 12:00 PM-6:00 PM; Mon: 11:00 AM-8:00 PM; Tue: 11:00 AM-8:00 PM; Wed: 11:00 AM-8:00 PM; Thu: 11:00 AM-8:00 PM; Fri: 11:00 AM-8:00 PM; Sat: 11:00 AM-8:00 PM"
"lids.com","https://lids.com/store/lids-music-city-mall/sd-28994544+z-9526002-2849818686","Lids Music City Mall 6010","42nd St  JBS Pkwy  SP L38","Odessa","TX","79762","US","6010","432-366-4877","Lids","41.242882","-76.826228","Sun: 12:00 PM-6:00 PM; Mon: 10:00 AM-9:00 PM; Tue: 10:00 AM-9:00 PM; Wed: 10:00 AM-9:00 PM; Thu: 10:00 AM-9:00 PM; Fri: 10:00 AM-9:00 PM; Sat: 10:00 AM-9:00 PM"
"lids.com","https://lids.com/store/lids-river-ridge/sd-2060+z-914315264-2977958292","Lids River Ridge 84","3405 Candlers Mt Rd K385","Lynchburg","VA","24502","US","84","434-239-0670","Lids","37.3651581","-79.1783919","Sun: 11:00 AM-7:00 PM; Mon: 10:00 AM-9:00 PM; Tue: 10:00 AM-9:00 PM; Wed: 10:00 AM-9:00 PM; Thu: 10:00 AM-9:00 PM; Fri: 10:00 AM-9:00 PM; Sat: 9:00 AM-9:00 PM"
"lids.com","https://lids.com/store/lids-st-charles-towne-center/sd-1724+z-939402728-1213963148","Lids St. Charles Towne Center 62","1110 Mall Cir B02A","Waldorf","MD","20603","US","62","301-885-0985","Lids","38.6265124","-76.9105483","Sun: 11:00 AM-6:00 PM; Mon: 10:00 AM-9:00 PM; Tue: 10:00 AM-9:00 PM; Wed: 10:00 AM-9:00 PM; Thu: 10:00 AM-9:00 PM; Fri: 10:00 AM-9:00 PM; Sat: 10:00 AM-9:00 PM"
"lids.com","https://lids.com/store/lids-eastpoint-mall/sd-16481967+z-9930462-2998717919","Lids Eastpoint Mall 5481","7839 Eastpoint Mall","Baltimore","MD","21224","US","5481","410-282-2030","Lids","39.294715","-76.508566","Sun: 11:00 AM-6:00 PM; Mon: 10:00 AM-9:00 PM; Tue: 10:00 AM-9:00 PM; Wed: 10:00 AM-9:00 PM; Thu: 10:00 AM-9:00 PM; Fri: 10:00 AM-9:00 PM; Sat: 10:00 AM-9:00 PM"
"lids.com","https://lids.com/store/lids-white-marsh/sd-38619337+z-9725924-590793929","Lids White Marsh 5544","8200 Perry Hall Blvd 2130","Baltimore","MD","21236","US","5544","410-933-4811","Lids","39.374981","-76.469105","Sun: 11:00 AM-7:30 PM; Mon: 10:00 AM-9:00 PM; Tue: 10:00 AM-9:00 PM; Wed: 10:00 AM-9:00 PM; Thu: 10:00 AM-9:00 PM; Fri: 10:00 AM-9:00 PM; Sat: 10:00 AM-9:00 PM"
"lids.com","https://lids.com/store/lids-tanger-outlets-jeffersonville/sd-28629943+z-9511213-608453810","Tanger Outlets Jeffersonville","8512 Factory Shops Blvd SP8512","Jeffersonville","OH","43128","US","6609","740-895-0099","Lids","39.6214749","-83.6000004","Sun: 10:00 AM-7:00 PM; Mon: 10:00 AM-9:00 PM; Tue: 10:00 AM-9:00 PM; Wed: 10:00 AM-9:00 PM; Thu: 10:00 AM-9:00 PM; Fri: 10:00 AM-9:00 PM; Sat: 10:00 AM-9:00 PM"
"lids.com","https://lids.com/store/lids-park-city-center/sd-38783444+z-9176407-30033208","Lids Park City Center 5110","123 Park City Center A0123","Lancaster","PA","17601","US","5110","717-390-1743","Lids","40.06497","-76.337468","Sun: 11:00 AM-6:00 PM; Mon: 10:00 AM-9:00 PM; Tue: 10:00 AM-9:00 PM; Wed: 10:00 AM-9:00 PM; Thu: 10:00 AM-9:00 PM; Fri: 10:00 AM-9:00 PM; Sat: 10:00 AM-9:00 PM"
"lids.com","https://lids.com/store/macys-locker-room-by-lids-harford-mall/sd-24806075+z-9694160-3465090486","Macy's Locker Room by LIDS Harford Mall 2248","696 Baltimore Pike","Bel Air","MD","21014","US","2248","<MISSING>","Macy's Locker Room by LIDS","39.5268863","-76.3572197","Sun: 11:00 AM-6:00 PM; Mon: 10:00 AM-9:00 PM; Tue: 10:00 AM-9:00 PM; Wed: 10:00 AM-9:00 PM; Thu: 10:00 AM-9:00 PM; Fri: 10:00 AM-9:00 PM; Sat: 10:00 AM-9:00 PM"
"lids.com","https://lids.com/store/lids-westfield-annapolis/sd-27334990+z-9367050-2270208405","Lids Westfield Annapolis 5051","1215 Annapolis Mall Rd 151","Annapolis","MD","21401","US","5051","410-224-5884","Lids","38.987764","-76.544631","Sun: 10:00 AM-8:00 PM; Mon: 10:00 AM-8:00 PM; Tue: 10:00 AM-8:00 PM; Wed: 10:00 AM-8:00 PM; Thu: 10:00 AM-8:00 PM; Fri: 10:00 AM-8:00 PM; Sat: 10:00 AM-10:00 PM"
"lids.com","https://lids.com/store/lids-tanger-lancaster/sd-83862299+z-828584-2512109663","Lids Tanger Lancaster 5800","626 Stanley K Tanger Blvd","Lancaster","PA","17602-1467","US","5800","717-826-0069","Lids","40.0256468","-76.2199984","Sun: 10:00 AM-7:00 PM; Mon: 10:00 AM-9:00 PM; Tue: 10:00 AM-9:00 PM; Wed: 10:00 AM-9:00 PM; Thu: 10:00 AM-9:00 PM; Fri: 10:00 AM-9:00 PM; Sat: 10:00 AM-9:00 PM"
"lids.com","https://lids.com/store/lids-walden-galleria/sd-50669563+z-837852-3614508716","Lids Walden Galleria 5067","1 Walden Galleria Dr, Sp B101","Buffalo","NY","14225","US","5067","716-684-7368","Lids","42.920289","-78.758956","Sun: 11:00 AM-6:00 PM; Mon: 10:00 AM-9:30 PM; Tue: 10:00 AM-9:30 PM; Wed: 10:00 AM-9:30 PM; Thu: 10:00 AM-9:30 PM; Fri: 10:00 AM-9:30 PM; Sat: 10:00 AM-9:30 PM"
"lids.com","https://lids.com/store/lids-berkshire-mall-lids-store/sd-38614292+z-9624813-3926381236","Lids Berkshire Mall Lids Store 5583","1665 State Hill Road 740","Wyomissing","PA","19610","US","5583","610-373-2900","Lids","40.3420281","-75.9699094","Sun: 12:00 PM-5:00 PM; Mon: 11:00 AM-8:00 PM; Tue: 11:00 AM-8:00 PM; Wed: 11:00 AM-8:00 PM; Thu: 11:00 AM-8:00 PM; Fri: 11:00 AM-8:00 PM; Sat: 11:00 AM-8:00 PM"
"lids.com","https://lids.com/store/lids-chesterfield-towne-center/sd-2806+z-938581408-625623632","Lids Chesterfield Towne Center 66","11500 Midlothin Tnpk 454","Richmond","VA","23235","US","66","804-378-4410","Lids","37.508557","-77.608739","Sun: 11:00 AM-7:00 PM; Mon: 10:00 AM-9:00 PM; Tue: 10:00 AM-9:00 PM; Wed: 10:00 AM-9:00 PM; Thu: 10:00 AM-9:00 PM; Fri: 10:00 AM-9:00 PM; Sat: 10:00 AM-9:00 PM"
"lids.com","https://lids.com/store/lids-boulevard-mall/sd-344085+z-8112268-919286724","Lids Boulevard Mall 167","744B Alberta Dr 433","Amherst","NY","14226","US","167","716-833-4205","Lids","42.98864","-78.817272","Sun: 11:00 AM-7:00 PM; Mon: 10:00 AM-8:00 PM; Tue: 10:00 AM-8:00 PM; Wed: 10:00 AM-8:00 PM; Thu: 10:00 AM-8:00 PM; Fri: 10:00 AM-8:00 PM; Sat: 10:00 AM-8:00 PM"
"lids.com","https://lids.com/store/buckeye-room-the-mall-at-fairfield-commons/sd-20915675+z-9078088-1553079089","Buckeye Room The Mall at Fairfield Commons 8218","2727 Fairfield Common Bvd W175","BEAVERCREEK","OH","45431","US","8218","937-426-2662","Buckeye Room","39.7673785","-84.0563456","Sun: 11:00 AM-7:00 PM; Mon: 10:00 AM-9:00 PM; Tue: 10:00 AM-9:00 PM; Wed: 10:00 AM-9:00 PM; Thu: 10:00 AM-9:00 PM; Fri: 10:00 AM-9:00 PM; Sat: 10:00 AM-9:00 PM"
"lids.com","https://lids.com/store/lids-queenstown-premium-outlets/sd-17849200+z-9057291-3600332010","Queenstown Premium Outlets","407 Outlet Center Dr SP A0004","Queenstown","MD","21658","US","6630","410-829-4087","Lids","38.9839875","-76.1593307","Sun: 11:00 AM-6:00 PM; Mon: 10:00 AM-9:00 PM; Tue: 10:00 AM-9:00 PM; Wed: 10:00 AM-9:00 PM; Thu: 10:00 AM-9:00 PM; Fri: 10:00 AM-9:00 PM; Sat: 10:00 AM-9:00 PM"
"lids.com","https://lids.com/store/lids-the-mall-at-fairfield-commons/sd-1579+z-916437350-3228860878","Lids The Mall at Fairfield Commons 42","2727 Fairfield Com E219","Beavercreek","OH","45431","US","42","937-431-0367","Lids","39.764031","-84.085443","Sun: 11:00 AM-7:00 PM; Mon: 10:00 AM-9:00 PM; Tue: 10:00 AM-9:00 PM; Wed: 10:00 AM-9:00 PM; Thu: 10:00 AM-9:00 PM; Fri: 10:00 AM-9:00 PM; Sat: 10:00 AM-9:00 PM"
"lids.com","https://lids.com/store/lids-fashion-outlets-at-niagara-falls/sd-27090911+z-9935313-2426288611","Lids Fashion Outlets at Niagara Falls 5990","1924 Military Rd 55","Niagara Falls","NY","14304","US","5990","716-297-4301","Lids","43.097843","-78.975573","Sun: 10:00 AM-6:00 PM; Mon: 10:00 AM-9:00 PM; Tue: 10:00 AM-9:00 PM; Wed: 10:00 AM-9:00 PM; Thu: 10:00 AM-9:00 PM; Fri: 10:00 AM-9:00 PM; Sat: 10:00 AM-9:00 PM"
"lids.com","https://lids.com/store/lids-arnot-mall/sd-27492684+z-78191-4029198845","Lids Arnot Mall 5546","3300 Chambers Rd So B9","Horseheads","NY","14845","US","5546","607-796-9701","Lids","42.1599548","-76.8728016","Sun: 11:00 AM-6:00 PM; Mon: 11:00 AM-7:00 PM; Tue: 11:00 AM-7:00 PM; Wed: 11:00 AM-7:00 PM; Thu: 11:00 AM-7:00 PM; Fri: 11:00 AM-7:00 PM; Sat: 11:00 AM-7:00 PM"
"lids.com","https://lids.com/store/locker-room-by-lids-dayton-mall/sd-20809958+z-9678119-3543309708","Locker Room by LIDS Dayton Mall 8203","2700 Miamisburg Centerville Rd SP1","DAYTON","OH","45459","US","8203","937-432-9475","Locker Room by LIDS","39.6400784","-84.1751648","Sun: 11:00 AM-7:00 PM; Mon: 10:00 AM-9:00 PM; Tue: 10:00 AM-9:00 PM; Wed: 10:00 AM-9:00 PM; Thu: 10:00 AM-9:00 PM; Fri: 10:00 AM-9:00 PM; Sat: 10:00 AM-9:00 PM"
"lids.com","https://lids.com/store/locker-room-by-lids-franklin-park/sd-19020098+z-9399063-1107226482","Locker Room by LIDS Franklin Park 8209","5001 Monroe St","TOLEDO","OH","43623","US","8209","419-475-1250","Locker Room by LIDS","41.6940729","-83.6394451","Sun: 12:00 PM-6:00 PM; Mon: 11:00 AM-8:00 PM; Tue: 11:00 AM-8:00 PM; Wed: 11:00 AM-8:00 PM; Thu: 11:00 AM-8:00 PM; Fri: 11:00 AM-8:00 PM; Sat: 10:00 AM-9:00 PM"
"lids.com","https://lids.com/store/lids-franklin-park-/sd-38564108+z-9586492-1279073738","Lids Franklin Park 5178","5001 Monroe St SpC8","Toledo","OH","43623","US","5178","419-474-3554","Lids","41.6947913","-83.6405727","Sun: 12:00 PM-6:00 PM; Mon: 11:00 AM-8:00 PM; Tue: 11:00 AM-8:00 PM; Wed: 11:00 AM-8:00 PM; Thu: 11:00 AM-8:00 PM; Fri: 11:00 AM-8:00 PM; Sat: 10:00 AM-9:00 PM"
"lids.com","https://lids.com/store/lids-lima-mall/sd-38283543+z-9698224-3084489874","Lids Lima Mall 5629","2400 Elida Road SpK106A","Lima","OH","45805","US","5629","419-331-5437","Lids","40.764914","-84.1495796","Sun: 11:00 AM-8:00 PM; Mon: 10:00 AM-9:00 PM; Tue: 10:00 AM-9:00 PM; Wed: 10:00 AM-9:00 PM; Thu: 10:00 AM-9:00 PM; Fri: 10:00 AM-9:00 PM; Sat: 9:00 AM-10:00 PM"
"lids.com","https://lids.com/store/macys-locker-room-by-lids-lima-mall/sd-46389060+z-860962-26072894","Macy's Locker Room by LIDS Lima Mall 2514","2600 ELIDA ROAD","Lima","OH","45805","US","2514","<MISSING>","Macy's Locker Room by LIDS","40.766301","-84.152225","Sun: 11:00 AM-7:00 PM; Mon: 11:00 AM-7:00 PM; Tue: 11:00 AM-7:00 PM; Wed: 11:00 AM-7:00 PM; Thu: 11:00 AM-7:00 PM; Fri: 11:00 AM-7:00 PM; Sat: 11:00 AM-7:00 PM"
"lids.com","https://lids.com/store/lids-dayton-mall/sd-3622+z-943084043-3292520658","Lids Dayton Mall 30","2700 Miamisburg-Centerville Rd","Dayton","OH","45459","US","30","937-436-5386","Lids","39.634664","-84.220247","Sun: 11:00 AM-7:00 PM; Mon: 10:00 AM-9:00 PM; Tue: 10:00 AM-9:00 PM; Wed: 10:00 AM-9:00 PM; Thu: 10:00 AM-9:00 PM; Fri: 10:00 AM-9:00 PM; Sat: 10:00 AM-9:00 PM"
"lids.com","https://lids.com/store/lids-southland-center/sd-38254863+z-9893131-1357468040","Lids Southland Center 5347","23000 Eureka Rd SP 1106","Taylor","MI","48180","US","5347","734-287-4182","Lids","42.200604","-83.254713","Sun: 12:00 PM-6:00 PM; Mon: 11:00 AM-8:00 PM; Tue: 11:00 AM-8:00 PM; Wed: 11:00 AM-8:00 PM; Thu: 11:00 AM-8:00 PM; Fri: 11:00 AM-8:00 PM; Sat: 11:00 AM-8:00 PM"
"lids.com","https://lids.com/store/locker-room-by-lids-southland-center/sd-20881030+z-9236968-322650684","Locker Room by LIDS Southland Center 8097","23000 Eureka Rd SP1090","Taylor","MI","48180","US","8097","734-287-5194","Locker Room by LIDS","42.200604","-83.254713","Sun: 12:00 PM-6:00 PM; Mon: 11:00 AM-8:00 PM; Tue: 11:00 AM-8:00 PM; Wed: 11:00 AM-8:00 PM; Thu: 11:00 AM-8:00 PM; Fri: 11:00 AM-8:00 PM; Sat: 11:00 AM-8:00 PM"
"lids.com","https://lids.com/store/lids-eastland-center/sd-94483520+z-79675-2561643083","Lids Eastland Center 5428","18000 Vernier Rd Sp105","Harper Woods","MI","48225","US","5428","313-527-7630","Lids","42.448444","-82.935686","Sun: 12:00 PM-5:00 PM; Mon: 10:00 AM-9:00 PM; Tue: 10:00 AM-9:00 PM; Wed: 10:00 AM-9:00 PM; Thu: 10:00 AM-9:00 PM; Fri: 10:00 AM-9:00 PM; Sat: 10:00 AM-9:00 PM"
"lids.com","https://lids.com/store/lids-macomb-mall/sd-38732629+z-9681635-854825457","Lids Macomb Mall 5647","32417 Gratiot Ave SP580","Roseville","MI","48066","US","5647","586-415-8481","Lids","42.534598","-82.916706","Sun: 11:00 AM-6:00 PM; Mon: 10:00 AM-9:00 PM; Tue: 10:00 AM-9:00 PM; Wed: 10:00 AM-9:00 PM; Thu: 10:00 AM-9:00 PM; Fri: 10:00 AM-9:00 PM; Sat: 9:00 AM-9:00 PM"
"lids.com","https://lids.com/store/lids-christiana-mall/sd-38332603+z-9108667-2413584777","Lids Christiana Mall 5043","712 Christiana Mall","Newark","DE","19702","US","5043","302-737-2632","Lids","39.675976","-75.653685","Sun: 11:00 AM-7:00 PM; Mon: 10:00 AM-9:00 PM; Tue: 10:00 AM-9:00 PM; Wed: 10:00 AM-9:00 PM; Thu: 10:00 AM-9:00 PM; Fri: 10:00 AM-9:00 PM; Sat: 10:00 AM-9:00 PM"
"lids.com","https://lids.com/store/lids-fairlane-town-center/sd-38686507+z-9358228-164313529","Lids Fairlane Town Center 5297","18900 Michigan Ave","Dearborn","MI","48126","US","5297","313-436-8508","Lids","42.317836","-83.224227","Sun: 12:00 PM-6:00 PM; Mon: 11:00 AM-7:00 PM; Tue: 11:00 AM-7:00 PM; Wed: 11:00 AM-7:00 PM; Thu: 11:00 AM-7:00 PM; Fri: 11:00 AM-7:00 PM; Sat: 11:00 AM-7:00 PM"
"lids.com","https://lids.com/store/lids-cincinnati-premium-outlets/sd-17349419+z-9385325-79590150","Lids Cincinnati Premium Outlets 6158","977 Premium Outlets Dr Sp977","Monroe","OH","45050","US","6158","513-360-2859","Lids","39.433908","-84.337135","Sun: 10:00 AM-7:00 PM; Mon: 10:00 AM-9:00 PM; Tue: 10:00 AM-9:00 PM; Wed: 10:00 AM-9:00 PM; Thu: 10:00 AM-9:00 PM; Fri: 10:00 AM-9:00 PM; Sat: 10:00 AM-9:00 PM"
"lids.com","https://lids.com/store/fanatics-by-lids-cincinnati-premium-outlets/sd-20618953+z-9102469-1374988572","Fanatics by Lids Cincinnati Premium Outlets 8518","400 Premium Outlets SP120","Monroe","OH","45050","US","8518","513-464-5520","Lids","39.433908","-84.337135","Sun: 10:00 AM-7:00 PM; Mon: 10:00 AM-9:00 PM; Tue: 10:00 AM-9:00 PM; Wed: 10:00 AM-9:00 PM; Thu: 10:00 AM-9:00 PM; Fri: 10:00 AM-9:00 PM; Sat: 10:00 AM-9:00 PM"
"lids.com","https://lids.com/store/lids-wyoming-valley/sd-346008+z-99995457-2891385847","Lids Wyoming Valley 148","3 Wyoming Valley Mall 732","Wilkes Barre","PA","18702","US","148","570-820-0588","Lids","41.250116","-75.842521","Sun: 11:00 AM-7:00 PM; Mon: 11:00 AM-8:00 PM; Tue: 11:00 AM-8:00 PM; Wed: 11:00 AM-8:00 PM; Thu: 11:00 AM-8:00 PM; Fri: 11:00 AM-8:00 PM; Sat: 11:00 AM-8:00 PM"
"lids.com","https://lids.com/store/fanatics-by-lids-philadelphia-premium-outlets/sd-42164667+z-77792-4012465182","Fanatics by Lids 8521","18 West Lightcap Rd SP1185","Limerick","PA","19464","US","8521","267-904-7393","Lids","40.2366156","-75.5705805","Sun: 10:00 AM-7:00 PM; Mon: 10:00 AM-9:00 PM; Tue: 10:00 AM-9:00 PM; Wed: 10:00 AM-9:00 PM; Thu: 10:00 AM-9:00 PM; Fri: 10:00 AM-9:00 PM; Sat: 10:00 AM-9:00 PM"
"lids.com","https://lids.com/store/lids-philadelphia-premium-outlets/sd-28999339+z-9028786-2832810818","Lids Philadelphia Premium Outlets 6046","18 West Lightcap Road Ste 1059","Limerick","PA","19468","US","6046","610-970-6890","Lids","40.236109","-75.5693365","Sun: 10:00 AM-7:00 PM; Mon: 10:00 AM-9:00 PM; Tue: 10:00 AM-9:00 PM; Wed: 10:00 AM-9:00 PM; Thu: 10:00 AM-9:00 PM; Fri: 10:00 AM-9:00 PM; Sat: 10:00 AM-9:00 PM"
"lids.com","https://lids.com/store/lids-south-park/sd-3135+z-944995930-37866651","Lids South Park 82","394 Southpark Circle","Colonial Heights","VA","23834","US","82","804-520-2272","Lids","37.255378","-77.395954","Sun: 12:00 PM-6:00 PM; Mon: 11:00 AM-7:00 PM; Tue: 11:00 AM-7:00 PM; Wed: 11:00 AM-7:00 PM; Thu: 11:00 AM-7:00 PM; Fri: 11:00 AM-7:00 PM; Sat: 11:00 AM-7:00 PM"
"lids.com","https://lids.com/store/lids-eastgate-mall/sd-72841129+z-872969-4063688448","Lids Eastgate Mall 5607","4601 Eastgate Blvd, C564","Cincinnati","OH","45245","US","5607","513-947-1200","Lids","39.102632","-84.277533","Sun: 12:00 PM-6:00 PM; Mon: 11:00 AM-8:00 PM; Tue: 11:00 AM-8:00 PM; Wed: 11:00 AM-8:00 PM; Thu: 11:00 AM-8:00 PM; Fri: 11:00 AM-8:00 PM; Sat: 11:00 AM-8:00 PM"
"lids.com","https://lids.com/store/lids-liberty-center/sd-28269341+z-9304950-1463999078","Lids Liberty Center 6447","7100 Foundry Row Ste 162","Liberty Township","OH","45069","US","6447","513-755-2935","Lids","39.3722427","-84.3711944","Sun: 12:00 PM-6:00 PM; Mon: 10:00 AM-9:00 PM; Tue: 10:00 AM-9:00 PM; Wed: 10:00 AM-9:00 PM; Thu: 10:00 AM-9:00 PM; Fri: 10:00 AM-9:00 PM; Sat: 10:00 AM-9:00 PM"
"lids.com","https://lids.com/store/lids-concord-mall/sd-28364592+z-9456247-4224193654","Lids Concord Mall 6313","4737 Concord Pike SP695","Wilmington","DE","19803","US","6313","302-477-1863","Lids","39.8234453","-75.5439985","Sun: 12:00 PM-5:00 PM; Mon: 11:00 AM-8:00 PM; Tue: 11:00 AM-8:00 PM; Wed: 11:00 AM-8:00 PM; Thu: 11:00 AM-8:00 PM; Fri: 11:00 AM-8:00 PM; Sat: 11:00 AM-8:00 PM"
"lids.com","https://lids.com/store/lids-oakland-mall/sd-49139313+z-9134656-1999650820","Lids Oakland Mall 5242","482 W 14 Mile Rd Loc D","Troy","MI","48083","US","5242","248-588-9992","Lids","42.534202","-83.112787","Sun: 11:00 AM-6:00 PM; Mon: 10:00 AM-9:00 PM; Tue: 10:00 AM-9:00 PM; Wed: 10:00 AM-9:00 PM; Thu: 10:00 AM-9:00 PM; Fri: 10:00 AM-9:00 PM; Sat: 10:00 AM-9:00 PM"
"lids.com","https://lids.com/store/lids-lakeside/sd-27045986+z-9696190-387020954","Lids Lakeside 5448","14600 Lakeside Circle Sp 108","Sterling Heights","MI","48313","US","5448","586-566-2579","Lids","42.622964","-82.985815","Sun: 11:00 AM-6:00 PM; Mon: 11:00 AM-8:00 PM; Tue: 11:00 AM-8:00 PM; Wed: 11:00 AM-8:00 PM; Thu: 11:00 AM-8:00 PM; Fri: 11:00 AM-8:00 PM; Sat: 10:00 AM-9:00 PM"
"lids.com","https://lids.com/store/lids-westland-center/sd-61388716+z-805497-532206887","Lids Westland Center 5595","35000 West Warren SP3503","Westland","MI","48185","US","5595","734-762-1731","Lids","42.341046","-83.389435","Sun: 12:00 PM-5:00 PM; Mon: 11:00 AM-8:00 PM; Tue: 11:00 AM-8:00 PM; Wed: 11:00 AM-8:00 PM; Thu: 11:00 AM-8:00 PM; Fri: 11:00 AM-8:00 PM; Sat: 11:00 AM-8:00 PM"
"lids.com","https://lids.com/store/lids-kenwood-towne-center/sd-16675984+z-9897802-1731695364","Lids Kenwood Towne Center 5146","7875 Montgomery Rd SP1233","Cincinnati","OH","45236","US","5146","513-891-0264","Lids","39.2022336","-84.3771404","Sun: 11:00 AM-7:00 PM; Mon: 10:00 AM-9:00 PM; Tue: 10:00 AM-9:00 PM; Wed: 10:00 AM-9:00 PM; Thu: 10:00 AM-9:00 PM; Fri: 10:00 AM-9:00 PM; Sat: 10:00 AM-9:00 PM"
"lids.com","https://lids.com/store/macys-locker-room-by-lids-kenwood-towne-center/sd-13341812+z-9085823-3625422132","Macy's Locker Room by LIDS 2171","7875 MONTGOMERY ROAD","Cincinnati","OH","45236","US","2171","<MISSING>","Macy's Locker Room by LIDS","39.201269","-84.37807","Sun: 11:00 AM-6:00 PM; Mon: 10:00 AM-9:00 PM; Tue: 10:00 AM-9:00 PM; Wed: 10:00 AM-9:00 PM; Thu: 10:00 AM-9:00 PM; Fri: 10:00 AM-9:00 PM; Sat: 10:00 AM-9:00 PM"
"lids.com","https://lids.com/store/lids-locker-room-lehigh-valley-mall/sd-97016493+z-886530-2308869744","Lids Locker Room Lehigh Valley Mall 8184","171 Lehigh Valley Mall","Whitehall","PA","18052","US","8184","610-264-1119","Lids Locker Room","40.6309476","-75.4805004","Sun: 10:00 AM-9:00 PM; Mon: 10:00 AM-9:00 PM; Tue: 10:00 AM-9:00 PM; Wed: 10:00 AM-9:00 PM; Thu: 10:00 AM-9:00 PM; Fri: 10:00 AM-9:00 PM; Sat: 10:00 AM-9:00 PM"
"lids.com","https://lids.com/store/lids-lehigh-valley-mall/sd-27491282+z-9260195-4135146051","Lids Lehigh Valley Mall 5514","162 Lehigh Valley Mall","Whitehall","PA","18052","US","5514","610-264-5915","Lids","40.632592","-75.480445","Sun: 12:00 PM-6:00 PM; Mon: 10:00 AM-9:00 PM; Tue: 10:00 AM-9:00 PM; Wed: 10:00 AM-9:00 PM; Thu: 10:00 AM-9:00 PM; Fri: 10:00 AM-9:00 PM; Sat: 10:00 AM-9:00 PM"
"lids.com","https://lids.com/store/macys-locker-room-by-lids-somerset-collection/sd-13245514+z-9308702-2558782980","Macy's Locker Room by LIDS 2203","2750 WEST BIG BEAVER ROAD","Troy","MI","48084","US","2203","<MISSING>","Macy's Locker Room by LIDS","42.562926","-83.182275","Sun: 11:00 AM-6:00 PM; Mon: 10:00 AM-9:00 PM; Tue: 10:00 AM-9:00 PM; Wed: 10:00 AM-9:00 PM; Thu: 10:00 AM-9:00 PM; Fri: 10:00 AM-9:00 PM; Sat: 10:00 AM-9:00 PM"
"lids.com","https://lids.com/store/lids-dover-mall/sd-4399+z-83801170-3784924660","Lids Dover Mall 90","1365 N Dupont Hwy 4018","Dover","DE","19901","US","90","302-736-8465","Lids","39.195576","-75.541763","Sun: 10:00 AM-9:00 PM; Mon: 10:00 AM-9:00 PM; Tue: 10:00 AM-9:00 PM; Wed: 10:00 AM-9:00 PM; Thu: 10:00 AM-9:00 PM; Fri: 10:00 AM-9:00 PM; Sat: 10:00 AM-9:00 PM"
"lids.com","https://lids.com/store/lids-king-of-prussia-2/sd-39067016+z-9529322-3032772552","King of Prussia #2","160 N Gulph Rd SP2214","King of Prussia","PA","19406","US","6635","215-388-0580","Lids","40.0883703","-75.3915726","Sun: 11:00 AM-6:00 PM; Mon: 10:00 AM-9:00 PM; Tue: 10:00 AM-9:00 PM; Wed: 10:00 AM-9:00 PM; Thu: 10:00 AM-9:00 PM; Fri: 10:00 AM-9:00 PM; Sat: 10:00 AM-9:00 PM"
"lids.com","https://lids.com/store/lids-plaza-king-of-prussia/sd-27351613+z-9136399-3341411299","Lids Plaza King Of Prussia 5252","160 N Gulph Rd Ste 1030","King Of Prussia","PA","19406","US","5252","610-992-1470","Lids","40.089391","-75.3864","Sun: 10:00 AM-9:00 PM; Mon: 10:00 AM-9:00 PM; Tue: 10:00 AM-9:00 PM; Wed: 10:00 AM-9:00 PM; Thu: 10:00 AM-9:00 PM; Fri: 10:00 AM-9:00 PM; Sat: 10:00 AM-9:00 PM"
"lids.com","https://lids.com/store/lids-springfield-mall/sd-38514361+z-9252020-228109808","Lids Springfield Mall 5695","1250 Baltimore Pike SP20U","Springfield","PA","19064","US","5695","610-544-9100","Lids","39.915395","-75.352648","Sun: 11:00 AM-6:00 PM; Mon: 10:00 AM-9:00 PM; Tue: 10:00 AM-9:00 PM; Wed: 10:00 AM-9:00 PM; Thu: 10:00 AM-9:00 PM; Fri: 10:00 AM-9:00 PM; Sat: 10:00 AM-9:00 PM"
"lids.com","https://lids.com/store/lids-eastview-mall/sd-27449202+z-9974109-1787622143","Lids Eastview Mall 5032","513 Eastview mall","Victor","NY","14564","US","5032","585-223-4734","Lids","43.0293907","-77.4445303","Sun: 10:00 AM-8:00 PM; Mon: 10:00 AM-8:00 PM; Tue: 10:00 AM-8:00 PM; Wed: 10:00 AM-8:00 PM; Thu: 10:00 AM-8:00 PM; Fri: 10:00 AM-8:00 PM; Sat: 10:00 AM-8:00 PM"
"lids.com","https://lids.com/store/lids-viewmont-mall/sd-38399246+z-9847942-3866728243","Lids Viewmont Mall 5632","265 Viewmont Mall Sp K265","Scranton","PA","18508","US","5632","570-343-1300","Lids","41.459605","-75.673173","Sun: 11:00 AM-6:00 PM; Mon: 10:00 AM-9:00 PM; Tue: 10:00 AM-9:00 PM; Wed: 10:00 AM-9:00 PM; Thu: 10:00 AM-9:00 PM; Fri: 10:00 AM-9:00 PM; Sat: 10:00 AM-9:00 PM"
"lids.com","https://lids.com/store/macys-locker-room-by-lids-briarwood-mall/sd-13350057+z-9620037-3246989912","Macy's Locker Room by LIDS Briarwood Mall 2202","700 BRIARWOOD CIRCLE","Ann Arbor","MI","48108","US","2202","<MISSING>","Macy's Locker Room by LIDS","42.241697","-83.745538","Sun: 11:00 AM-6:00 PM; Mon: 10:00 AM-9:00 PM; Tue: 10:00 AM-9:00 PM; Wed: 10:00 AM-9:00 PM; Thu: 10:00 AM-9:00 PM; Fri: 10:00 AM-9:00 PM; Sat: 10:00 AM-9:00 PM"
"lids.com","https://lids.com/store/lids-briarwood-mall/sd-27266162+z-9803330-2694043363","Lids Briarwood Mall 5456","410 Briarwood Circle S142","Ann Arbor","MI","48108","US","5456","734-623-1553","Lids","42.2385244","-83.749004","Sun: 10:30 AM-6:00 PM; Mon: 10:00 AM-9:00 PM; Tue: 10:00 AM-9:00 PM; Wed: 10:00 AM-9:00 PM; Thu: 10:00 AM-9:00 PM; Fri: 10:00 AM-9:00 PM; Sat: 10:00 AM-9:00 PM"
"lids.com","https://lids.com/store/macys-locker-room-by-lids-twelve-oaks-mall/sd-13809930+z-820092-1154693094","Macy's Locker Room by LIDS Twelve Oaks Mall 2207","27550 NOVI ROAD","Novi","MI","48377","US","2207","<MISSING>","Macy's Locker Room by LIDS","42.491551","-83.471841","Sun: 11:00 AM-6:00 PM; Mon: 10:00 AM-9:00 PM; Tue: 10:00 AM-9:00 PM; Wed: 10:00 AM-9:00 PM; Thu: 10:00 AM-9:00 PM; Fri: 10:00 AM-9:00 PM; Sat: 10:00 AM-9:00 PM"
"lids.com","https://lids.com/store/lids-twelve-oaks-mall/sd-50313963+z-807097-705030743","Lids Twelve Oaks Mall 5867","27462 Novi Road","Novi","MI","48377","US","5867","248-449-1196","Lids","42.490387","-83.4759","Sun: 11:00 AM-7:00 PM; Mon: 10:00 AM-9:00 PM; Tue: 10:00 AM-9:00 PM; Wed: 10:00 AM-9:00 PM; Thu: 10:00 AM-9:00 PM; Fri: 10:00 AM-9:00 PM; Sat: 10:00 AM-9:00 PM"
"lids.com","https://lids.com/store/lids-greece-ridge-center/sd-27628011+z-9936313-2664117608","Lids Greece Ridge Center 5620","227 Greece Ridge Center Sp69A","Rochester","NY","14626","US","5620","585-227-3080","Lids","43.214693","-77.725227","Sun: 11:00 AM-7:00 PM; Mon: 10:00 AM-8:00 PM; Tue: 10:00 AM-8:00 PM; Wed: 10:00 AM-8:00 PM; Thu: 10:00 AM-8:00 PM; Fri: 10:00 AM-8:00 PM; Sat: 10:00 AM-8:00 PM"
"lids.com","https://lids.com/store/lids-montgomery-mall/sd-27055668+z-854521-1192375350","Lids Montgomery Mall 5512","804 Bethlehem Pike-Unit 2049","Montgomery","PA","19454","US","5512","215-362-2743","Lids","40.2335954","-75.2422837","Sun: 11:00 AM-6:00 PM; Mon: 10:00 AM-9:00 PM; Tue: 10:00 AM-9:00 PM; Wed: 10:00 AM-9:00 PM; Thu: 10:00 AM-9:00 PM; Fri: 10:00 AM-9:00 PM; Sat: 10:00 AM-9:00 PM"
"lids.com","https://lids.com/store/lids-philadelphia-airport/sd-39562813+z-9075119-1968954872","Lids Philadelphia Airport 6162","8500 Essington Ave  SPC DE7","Philadelphia","PA","19153","US","6162","215-937-1580","Lids","39.8764024","-75.2469751","Sun: 8:30 AM-5:30 PM; Mon: 8:30 AM-5:30 PM; Tue: 8:30 AM-5:30 PM; Wed: 8:30 AM-5:30 PM; Thu: 8:30 AM-5:30 PM; Fri: 8:30 AM-5:30 PM; Sat: 8:30 AM-5:30 PM"
"lids.com","https://lids.com/store/lids-great-lakes-crossing/sd-38806917+z-9966625-1200836416","Lids Great Lakes Crossing 5236","4580 Baldwin Rd District Sp806","Auburn Hills","MI","48326","US","5236","248-335-4090","Lids","42.7030768","-83.2973864","Sun: 11:00 AM-7:00 PM; Mon: 10:00 AM-9:00 PM; Tue: 10:00 AM-9:00 PM; Wed: 10:00 AM-9:00 PM; Thu: 10:00 AM-9:00 PM; Fri: 10:00 AM-9:00 PM; Sat: 10:00 AM-9:00 PM"
"lids.com","https://lids.com/store/lids-williamsburg-premium-outlets/sd-28709060+z-896572-114652549","Lids Williamsburg Premium Outlets 6314","5715 Richmond Rd SPD054","Williamsburg","VA","23188","US","6314","757-253-0424","Lids","37.321084","-76.737587","Sun: 11:00 AM-7:00 PM; Mon: 10:00 AM-9:00 PM; Tue: 10:00 AM-9:00 PM; Wed: 10:00 AM-9:00 PM; Thu: 10:00 AM-9:00 PM; Fri: 10:00 AM-9:00 PM; Sat: 10:00 AM-9:00 PM"
"lids.com","https://lids.com/store/macys-locker-room-by-lids-macys-center-city-philadelphia/sd-91558034+z-77285-1289485553","Macy's Locker Room by LIDS 2021","1300 Market Street","Philadelphia","PA","19107","US","2021","<MISSING>","Macy's Locker Room by LIDS","39.951411","-75.162069","Sun: 11:00 AM-6:00 PM; Mon: 10:00 AM-9:00 PM; Tue: 10:00 AM-9:00 PM; Wed: 10:00 AM-9:00 PM; Thu: 10:00 AM-9:00 PM; Fri: 10:00 AM-9:00 PM; Sat: 10:00 AM-9:00 PM"
"lids.com","https://lids.com/store/fanatics-by-lids-crossings-premium-outlets/sd-20721355+z-9246008-1642289988","Fanatics by Lids Crossings Premium Outlets 8520","1000 Premium Outlets Dr SPG13","Tannersville","PA","18372","US","8520","570-369-9858","Lids","41.0479966","-75.3128351","Sun: 10:00 AM-7:00 PM; Mon: 10:00 AM-9:00 PM; Tue: 10:00 AM-9:00 PM; Wed: 10:00 AM-9:00 PM; Thu: 10:00 AM-9:00 PM; Fri: 10:00 AM-9:00 PM; Sat: 10:00 AM-9:00 PM"
"lids.com","https://lids.com/store/lids-the-crossings-premium-outlets/sd-39929157+z-9406546-648219517","Lids The Crossings Premium Outlets 6322","1000 Rt 611 B02","Tannersville","PA","18372","US","6322","570-629-7820","Lids","41.048326","-75.312236","Sun: 10:00 AM-7:00 PM; Mon: 10:00 AM-9:00 PM; Tue: 10:00 AM-9:00 PM; Wed: 10:00 AM-9:00 PM; Thu: 10:00 AM-9:00 PM; Fri: 10:00 AM-9:00 PM; Sat: 10:00 AM-9:00 PM"
"lids.com","https://lids.com/store/macys-locker-room-by-lids-florence-mall/sd-46232924+z-9255124-149030336","Macy's Locker Room by LIDS Florence Mall 2172","5000 MALL ROAD","Florence","KY","41042","US","2172","<MISSING>","Macy's Locker Room by LIDS","39.003128","-84.652117","Sun: 11:00 AM-6:00 PM; Mon: 10:00 AM-9:00 PM; Tue: 10:00 AM-9:00 PM; Wed: 10:00 AM-9:00 PM; Thu: 10:00 AM-9:00 PM; Fri: 10:00 AM-9:00 PM; Sat: 10:00 AM-9:00 PM"
"lids.com","https://lids.com/store/locker-room-by-lids-florence-mall/sd-20797795+z-830554-3883234596","Locker Room by LIDS Florence Mall 8206","2028 Florence Mall  SP1","FLORENCE","KY","41042","US","8206","859-371-3946","Locker Room by LIDS","38.995675","-84.650641","Sun: 12:00 PM-6:00 PM; Mon: 10:00 AM-9:00 PM; Tue: 10:00 AM-9:00 PM; Wed: 10:00 AM-9:00 PM; Thu: 10:00 AM-9:00 PM; Fri: 10:00 AM-9:00 PM; Sat: 10:00 AM-9:00 PM"
"lids.com","https://lids.com/store/lids-florence-mall/sd-2388+z-996361728-3899403587","Lids Florence Mall 10","1140 Mall Rd","Florence","KY","41042","US","10","859-525-0963","Lids","38.992108","-84.651759","Sun: 12:00 PM-6:00 PM; Mon: 10:00 AM-9:00 PM; Tue: 10:00 AM-9:00 PM; Wed: 10:00 AM-9:00 PM; Thu: 10:00 AM-9:00 PM; Fri: 10:00 AM-9:00 PM; Sat: 10:00 AM-9:00 PM"
"lids.com","https://lids.com/store/lids-willow-grove/sd-124899+z-95595320-1661056108","Lids Willow Grove 140","2500 Moreland Rd 3025","Willow Grove","PA","19090","US","140","215-657-7919","Lids","40.140364","-75.123215","Sun: 10:00 AM-9:00 PM; Mon: 10:00 AM-9:00 PM; Tue: 10:00 AM-9:00 PM; Wed: 10:00 AM-9:00 PM; Thu: 10:00 AM-9:00 PM; Fri: 10:00 AM-9:00 PM; Sat: 10:00 AM-9:00 PM"
"lids.com","https://lids.com/store/lids-deptford-mall/sd-27470886+z-9784294-924961883","Lids Deptford Mall 5388","1750 Deptford Ctr Rd, Sp 1223","Deptford","NJ","08096","US","5388","856-845-0129","Lids","39.8315016","-75.0976381","Sun: 11:00 AM-7:00 PM; Mon: 10:00 AM-9:00 PM; Tue: 10:00 AM-9:00 PM; Wed: 10:00 AM-9:00 PM; Thu: 10:00 AM-9:00 PM; Fri: 10:00 AM-9:00 PM; Sat: 10:00 AM-9:00 PM"
"lids.com","https://lids.com/store/lids-the-centre-at-salisbury/sd-3985+z-985011995-590686782","Lids The Centre at Salisbury 67","2300 N Salisbury Blvd C115","Salisbury","MD","21801","US","67","410-334-2366","Lids","38.398857","-75.566277","Sun: 11:00 AM-7:00 PM; Mon: 10:00 AM-9:00 PM; Tue: 10:00 AM-9:00 PM; Wed: 10:00 AM-9:00 PM; Thu: 10:00 AM-9:00 PM; Fri: 10:00 AM-9:00 PM; Sat: 10:00 AM-9:00 PM"
"lids.com","https://lids.com/store/lids-gloucester-premium-outlets/sd-39046015+z-9576679-1650400931","Lids Gloucester Premium Outlets 6444","100 Premium Outlets Dr SP10","Blackwood","NJ","08012","US","6444","856-221-8733","Lids","39.8023363","-75.0640602","Sun: 10:00 AM-7:00 PM; Mon: 10:00 AM-9:00 PM; Tue: 10:00 AM-9:00 PM; Wed: 10:00 AM-9:00 PM; Thu: 10:00 AM-9:00 PM; Fri: 10:00 AM-9:00 PM; Sat: 10:00 AM-9:00 PM"
"lids.com","https://lids.com/store/lids-cherry-hill-mall/sd-16331385+z-9929644-233305733","Lids Cherry Hill Mall 5027","2000 Rt 38 SP 1595","Cherry Hill","NJ","08002","US","5027","856-662-5255","Lids","39.94086","-75.0257016","Sun: 11:00 AM-6:00 PM; Mon: 10:00 AM-9:00 PM; Tue: 10:00 AM-9:00 PM; Wed: 10:00 AM-9:00 PM; Thu: 10:00 AM-9:00 PM; Fri: 10:00 AM-9:00 PM; Sat: 10:00 AM-9:00 PM"
"lids.com","https://lids.com/store/lids-philadelphia-mills-mall/sd-38441681+z-9068331-1999932305","Lids Philadelphia Mills Mall 5053","1301 Franklin Mills Circle","Philadelphia","PA","19154","US","5053","215-632-5506","Lids","40.0881435","-74.9609055","Sun: 11:00 AM-7:00 PM; Mon: 10:00 AM-9:00 PM; Tue: 10:00 AM-9:00 PM; Wed: 10:00 AM-9:00 PM; Thu: 10:00 AM-9:00 PM; Fri: 10:00 AM-9:00 PM; Sat: 10:00 AM-9:00 PM"
"lids.com","https://lids.com/store/lids-moorestown-mall/sd-27517786+z-9329811-3575572932","Lids Moorestown Mall 5608","400 Route 38, 1675","Moorestown","NJ","08057","US","5608","856-727-7774","Lids","39.944399","-74.964442","Sun: 11:00 AM-6:00 PM; Mon: 10:00 AM-9:00 PM; Tue: 10:00 AM-9:00 PM; Wed: 10:00 AM-9:00 PM; Thu: 10:00 AM-9:00 PM; Fri: 10:00 AM-9:00 PM; Sat: 10:00 AM-9:00 PM"
"lids.com","https://lids.com/store/lids-oxford-valley-mall/sd-38383718+z-9252539-376584810","Lids Oxford Valley Mall 5547","2300 E Lincoln Hwy 2124","Langhorn","PA","19047","US","5547","215-752-5086","Lids","40.1836378","-74.8810481","Sun: 11:00 AM-6:00 PM; Mon: 10:00 AM-9:00 PM; Tue: 10:00 AM-9:00 PM; Wed: 10:00 AM-9:00 PM; Thu: 10:00 AM-9:00 PM; Fri: 10:00 AM-9:00 PM; Sat: 10:00 AM-9:00 PM"
"lids.com","https://lids.com/store/lids-hanes-mall/sd-38663912+z-9675618-3272127914","Lids Hanes Mall 5061","3320 Silas Creek Parkway","Winston-salem","NC","27103","US","5061","336-760-8434","Lids","36.070162","-80.300548","Sun: 12:00 PM-6:00 PM; Mon: 11:00 AM-8:00 PM; Tue: 11:00 AM-8:00 PM; Wed: 11:00 AM-8:00 PM; Thu: 11:00 AM-8:00 PM; Fri: 11:00 AM-8:00 PM; Sat: 11:00 AM-8:00 PM"
"lids.com","https://lids.com/store/locker-room-by-lids-hanes-mall/sd-42883462+z-70992-936884664","Locker Room by LIDS Hanes Mall 8016","3320 Silas Creek Pkwy SP244","Winston-Salem","NC","27103","US","8016","336-768-1770","Locker Room by LIDS","36.0699383","-80.301057","Sun: 12:00 PM-6:00 PM; Mon: 11:00 AM-8:00 PM; Tue: 11:00 AM-8:00 PM; Wed: 11:00 AM-8:00 PM; Thu: 11:00 AM-8:00 PM; Fri: 11:00 AM-8:00 PM; Sat: 11:00 AM-8:00 PM"
"lids.com","https://lids.com/store/locker-room-by-lids-fan-outfitters-hamburg-pavilion/sd-19010475+z-9491827-2392635446","Locker Room by LIDS 8148","2160 Sir Barton Way SP130","Lexington","KY","40509","US","8148","859-264-0040","Locker Room by LIDS","38.022072","-84.419653","Sun: 12:00 PM-6:00 PM; Mon: 11:00 AM-8:00 PM; Tue: 11:00 AM-8:00 PM; Wed: 11:00 AM-8:00 PM; Thu: 11:00 AM-8:00 PM; Fri: 11:00 AM-8:00 PM; Sat: 11:00 AM-8:00 PM"
"lids.com","https://lids.com/store/sports-fan-attic-four-seasons-town-center/sd-19226731+z-9069449-4148571425","Sports Fan-Attic Four Seasons Town Center 8018","321 Four Seasons Town Ctr","Greensboro","NC","27427","US","8018","336-852-3211","Sports Fan-Attic","36.0398368","-79.8375963","Sun: 11:00 AM-7:00 PM; Mon: 10:00 AM-9:00 PM; Tue: 10:00 AM-9:00 PM; Wed: 10:00 AM-9:00 PM; Thu: 10:00 AM-9:00 PM; Fri: 10:00 AM-9:00 PM; Sat: 10:00 AM-9:00 PM"
"lids.com","https://lids.com/store/lids-four-seasons-town-center/sd-38001028+z-872143-1039192902","Lids Four Seasons Town Center 5096","221 Four Seasons Town Centre","Greensboro","NC","27407","US","5096","336-547-6000","Lids","36.039573","-79.837956","Sun: 11:00 AM-7:00 PM; Mon: 10:00 AM-9:00 PM; Tue: 10:00 AM-9:00 PM; Wed: 10:00 AM-9:00 PM; Thu: 10:00 AM-9:00 PM; Fri: 10:00 AM-9:00 PM; Sat: 10:00 AM-9:00 PM"
"lids.com","https://lids.com/store/lids-patrick-henry/sd-3254+z-993055051-2661211162","Lids Patrick Henry 99","12300 Jefferson Ave, 724","Newport News","VA","23602","US","99","757-269-4969","Lids","37.11249","-76.495879","Sun: 12:00 PM-6:00 PM; Mon: 10:00 AM-9:00 PM; Tue: 10:00 AM-9:00 PM; Wed: 10:00 AM-9:00 PM; Thu: 10:00 AM-9:00 PM; Fri: 10:00 AM-9:00 PM; Sat: 10:00 AM-9:00 PM"
"lids.com","https://lids.com/store/lids-tanger-rehoboth/sd-27497251+z-9202159-3213918438","Lids Tanger Rehoboth 5556","35706 Bayside Outlet Dr S440","Rehoboth Beach","DE","19971","US","5556","302-226-8580","Lids","38.7148373","-75.1110036","Sun: 11:00 AM-7:00 PM; Mon: 10:00 AM-8:00 PM; Tue: 10:00 AM-8:00 PM; Wed: 10:00 AM-8:00 PM; Thu: 10:00 AM-8:00 PM; Fri: 10:00 AM-8:00 PM; Sat: 10:00 AM-8:00 PM"
"lids.com","https://lids.com/store/lids-quaker-bridge-mall/sd-62262839+z-805247-896180796","Lids Quaker Bridge Mall 6466","150 Mall Quaker Rd SP2052","Lawrenceville","NJ","08648-2421","US","6466","609-423-9491","Lids","40.3016375","-74.7361013","Sun: 11:00 AM-6:00 PM; Mon: 10:00 AM-9:00 PM; Tue: 10:00 AM-9:00 PM; Wed: 10:00 AM-9:00 PM; Thu: 10:00 AM-9:00 PM; Fri: 10:00 AM-9:00 PM; Sat: 10:00 AM-9:00 PM"
"lids.com","https://lids.com/store/macys-locker-room-by-lids-fayette-mall/sd-35892185+z-9393604-2140971902","Macy's Locker Room by LIDS Fayette Mall 2197","3301 NICHOLASVILLE ROAD","Lexington","KY","40503","US","2197","<MISSING>","Macy's Locker Room by LIDS","37.990957","-84.527073","Sun: 11:00 AM-6:00 PM; Mon: 10:00 AM-9:00 PM; Tue: 10:00 AM-9:00 PM; Wed: 10:00 AM-9:00 PM; Thu: 10:00 AM-9:00 PM; Fri: 10:00 AM-9:00 PM; Sat: 10:00 AM-9:00 PM"
"lids.com","https://lids.com/store/lids-fayette-mall/sd-677867+z-8893664-2918253171","Lids Fayette Mall 111","3401 Nicholasville Rd SP D411","Lexington","KY","40503-3693","US","111","859-245-3157","Lids","37.988482","-84.5278248","Sun: 12:00 PM-6:00 PM; Mon: 11:00 AM-8:00 PM; Tue: 11:00 AM-8:00 PM; Wed: 11:00 AM-8:00 PM; Thu: 11:00 AM-8:00 PM; Fri: 11:00 AM-8:00 PM; Sat: 12:00 PM-8:00 PM"
"lids.com","https://lids.com/store/lids-glenbrook-square/sd-41+z-9286391942-3793472861","Lids Glenbrook Square 7","4201 Coldwater Road SPD03A","Fort Wayne","IN","46805","US","7","260-471-4287","Lids","41.116203","-85.138463","Sun: 11:00 AM-7:00 PM; Mon: 10:00 AM-9:00 PM; Tue: 10:00 AM-9:00 PM; Wed: 10:00 AM-9:00 PM; Thu: 10:00 AM-9:00 PM; Fri: 10:00 AM-9:00 PM; Sat: 10:00 AM-9:00 PM"
"lids.com","https://lids.com/store/lids-locker-room-fan-outfitters-palomar-center/sd-19674945+z-9125129-3811236007","Lids Locker Room 8151","3735 Palomar Center Drive SP250","Lexington","KY","40513","US","8151","859-523-5130","Lids Locker Room","38.004343","-84.571256","Sun: 12:00 PM-6:00 PM; Mon: 11:00 AM-8:00 PM; Tue: 11:00 AM-8:00 PM; Wed: 11:00 AM-8:00 PM; Thu: 11:00 AM-8:00 PM; Fri: 11:00 AM-8:00 PM; Sat: 11:00 AM-8:00 PM"
"lids.com","https://lids.com/store/lids-genesee-valley/sd-38948047+z-9595306-3237066611","Lids Genesee Valley 5523","3369 S Linden Rd 205","Flint","MI","48507","US","5523","810-733-1334","Lids","42.978127","-83.772024","Sun: 11:00 AM-8:00 PM; Mon: 11:00 AM-8:00 PM; Tue: 11:00 AM-8:00 PM; Wed: 11:00 AM-8:00 PM; Thu: 11:00 AM-8:00 PM; Fri: 11:00 AM-8:00 PM; Sat: 11:00 AM-8:00 PM"
"lids.com","https://lids.com/store/lids-muncie-mall/sd-46+z-851982997-3313716190","Lids Muncie Mall 2","3501 N Granville Ave","Muncie","IN","47303","US","2","765-284-4696","Lids","40.2216934","-85.3763872","Sun: 11:00 AM-7:00 PM; Mon: 10:00 AM-8:00 PM; Tue: 10:00 AM-8:00 PM; Wed: 10:00 AM-8:00 PM; Thu: 10:00 AM-8:00 PM; Fri: 10:00 AM-8:00 PM; Sat: 10:00 AM-8:00 PM"
"lids.com","https://lids.com/store/lids-hamilton-mall/sd-38997078+z-9101057-2906522620","Lids Hamilton Mall 5031","4403 Black Horse Pike","Mays Landing","NJ","08330","US","5031","609-569-1388","Lids","39.453853","-74.643506","Sun: 12:00 PM-5:00 PM; Mon: 11:00 AM-8:00 PM; Tue: 11:00 AM-8:00 PM; Wed: 11:00 AM-8:00 PM; Thu: 11:00 AM-8:00 PM; Fri: 11:00 AM-8:00 PM; Sat: 11:00 AM-8:00 PM"
"lids.com","https://lids.com/store/lids-locker-room-the-streets-at-southpoint/sd-31338949+z-9613864-2211625473","Lids Locker Room The Streets at Southpoint 8015","6910 Fayeteville Rd SP291","Durham","NC","27713","US","8015","919-484-3100","Lids Locker Room","35.90347","-78.943008","Sun: 11:00 AM-7:00 PM; Mon: 10:00 AM-9:00 PM; Tue: 10:00 AM-9:00 PM; Wed: 10:00 AM-9:00 PM; Thu: 10:00 AM-9:00 PM; Fri: 10:00 AM-9:00 PM; Sat: 10:00 AM-9:00 PM"
"lids.com","https://lids.com/store/lids-the-streets-at-southpoint/sd-84812246+z-897889-2944978664","Lids The Streets at Southpoint 6302","6910 Fayetteville RD SP2025","Durham","NC","27713","US","6302","919-544-0250","Lids","35.90347","-78.943008","Sun: 11:00 AM-7:00 PM; Mon: 10:00 AM-9:00 PM; Tue: 10:00 AM-9:00 PM; Wed: 10:00 AM-9:00 PM; Thu: 10:00 AM-9:00 PM; Fri: 10:00 AM-9:00 PM; Sat: 10:00 AM-9:00 PM"
"lids.com","https://lids.com/store/lids-destiny-usa/sd-16003513+z-9718989-3519616763","Lids Destiny USA 5022","9765 Destiny USA drive","Syracuse","NY","13204","US","5022","315-478-0284","Lids","43.0695759","-76.1733586","Sun: 11:00 AM-6:00 PM; Mon: 10:00 AM-9:30 PM; Tue: 10:00 AM-9:30 PM; Wed: 10:00 AM-9:30 PM; Thu: 10:00 AM-9:30 PM; Fri: 10:00 AM-9:30 PM; Sat: 10:00 AM-9:30 PM"
"lids.com","https://lids.com/store/lids-chesapeake-square/sd-232202+z-96790841-3422828237","Lids Chesapeake Square 102","4200 Portsmouth Blvd, 112","Chesapeake","VA","23321","US","102","757-405-3897","Lids","36.825569","-76.41562","Sun: 12:00 PM-6:00 PM; Mon: 10:00 AM-9:00 PM; Tue: 10:00 AM-9:00 PM; Wed: 10:00 AM-9:00 PM; Thu: 10:00 AM-9:00 PM; Fri: 10:00 AM-9:00 PM; Sat: 10:00 AM-9:00 PM"
"lids.com","https://lids.com/store/lids-rockaway-townsquare/sd-16116445+z-9965200-3155874889","Lids Rockaway Townsquare 5081","301 Mount Hope Ave SP2074","Rockaway","NJ","07866","US","5081","973-361-3100","Lids","40.930976","-74.519706","Sun: 11:00 AM-7:00 PM; Mon: 10:00 AM-9:00 PM; Tue: 10:00 AM-9:00 PM; Wed: 10:00 AM-9:00 PM; Thu: 10:00 AM-9:00 PM; Fri: 10:00 AM-9:00 PM; Sat: 10:00 AM-9:00 PM"
"lids.com","https://lids.com/store/lids-triangle-town-center/sd-51724712+z-802745-1590034295","Lids Triangle Town Center 6531","5959 Triangle Town Blvd CL1144","Raleigh","NC","27616","US","6531","919-792-2196","Lids","35.8774409","-78.5547283","Sun: 12:00 PM-6:00 PM; Mon: 11:00 AM-7:00 PM; Tue: 11:00 AM-7:00 PM; Wed: 11:00 AM-7:00 PM; Thu: 11:00 AM-7:00 PM; Fri: 11:00 AM-7:00 PM; Sat: 11:00 AM-7:00 PM"
"lids.com","https://lids.com/store/lids-macarthur-center/sd-38984741+z-9180650-470428407","Lids MacArthur Center 5937","300 Monticello Avenue, SP132","Norfolk","VA","23510","US","5937","757-622-1322","Lids","36.849493","-76.28937","Sun: 12:00 PM-6:00 PM; Mon: 11:00 AM-7:00 PM; Tue: 11:00 AM-7:00 PM; Wed: 11:00 AM-7:00 PM; Thu: 11:00 AM-7:00 PM; Fri: 11:00 AM-7:00 PM; Sat: 11:00 AM-7:00 PM"
"lids.com","https://lids.com/store/lids-crabtree-valley-mall/sd-16084949+z-886790-3696210844","Lids Crabtree Valley Mall 5855","4325 Glenwood Ave Sp2067","Raleigh","NC","27612","US","5855","919-571-3548","Lids","35.840454","-78.679593","Sun: 11:00 AM-7:00 PM; Mon: 10:00 AM-9:00 PM; Tue: 10:00 AM-9:00 PM; Wed: 10:00 AM-9:00 PM; Thu: 10:00 AM-9:00 PM; Fri: 10:00 AM-9:00 PM; Sat: 10:00 AM-9:00 PM"
"lids.com","https://lids.com/store/macys-locker-room-by-lids-meridian-mall/sd-24695012+z-9614667-1691213507","Macy's Locker Room by LIDS Meridian Mall 2351","1982 W GRAND RIVER","Okemos","MI","48864","US","2351","<MISSING>","Macy's Locker Room by LIDS","42.725245","-84.419554","Sun: 11:00 AM-6:00 PM; Mon: 10:00 AM-9:00 PM; Tue: 10:00 AM-9:00 PM; Wed: 10:00 AM-9:00 PM; Thu: 10:00 AM-9:00 PM; Fri: 10:00 AM-9:00 PM; Sat: 10:00 AM-9:00 PM"
"lids.com","https://lids.com/store/lids-meridian-mall/sd-2603+z-986123571-3690627142","Lids Meridian Mall 43","1982 Grand River Ave SP339","Okemos","MI","48864","US","43","517-381-3439","Lids","42.725245","-84.419554","Sun: 11:00 AM-8:00 PM; Mon: 11:00 AM-8:00 PM; Tue: 11:00 AM-8:00 PM; Wed: 11:00 AM-8:00 PM; Thu: 11:00 AM-8:00 PM; Fri: 11:00 AM-8:00 PM; Sat: 11:00 AM-8:00 PM"
"lids.com","https://lids.com/store/lids-prime-outlets--birch-run/sd-28584158+z-9074176-267561189","Lids Prime Outlets @ Birch Run 6373","12156 S Beyer Rd Suite V012","Birch Run","MI","48415","US","6373","989-624-4140","Lids","43.246667","-83.774677","Sun: 11:00 AM-7:00 PM; Mon: 10:00 AM-9:00 PM; Tue: 10:00 AM-9:00 PM; Wed: 10:00 AM-9:00 PM; Thu: 10:00 AM-9:00 PM; Fri: 10:00 AM-9:00 PM; Sat: 10:00 AM-9:00 PM"
"lids.com","https://lids.com/store/lids-norfolk-premium/sd-39062341+z-9119555-1238246152","Norfolk Premium","1600 Premium Outlets Blvd  SP618","Norfolk","VA","23502","US","6617","757-402-7577","Lids","36.8822543","-76.1998612","Sun: 11:00 AM-7:00 PM; Mon: 10:00 AM-9:00 PM; Tue: 10:00 AM-9:00 PM; Wed: 10:00 AM-9:00 PM; Thu: 10:00 AM-9:00 PM; Fri: 10:00 AM-9:00 PM; Sat: 10:00 AM-9:00 PM"
"lids.com","https://lids.com/store/lids-menlo-park-mall/sd-27445060+z-9577997-982180564","Lids Menlo Park Mall 5054","55 Parsonage Rd Sp 2440","Edison","NJ","08837","US","5054","732-906-1129","Lids","40.5477179","-74.335528","Sun: 11:00 AM-5:00 PM; Mon: 10:00 AM-9:00 PM; Tue: 10:00 AM-9:00 PM; Wed: 10:00 AM-9:00 PM; Thu: 10:00 AM-9:00 PM; Fri: 10:00 AM-9:00 PM; Sat: 10:00 AM-9:00 PM"
"lids.com","https://lids.com/store/lids-freehold-raceway/sd-344929+z-95688485-1770329297","Lids Freehold Raceway 157","3710 Route 9, B126","Freehold","NJ","07728","US","157","732-683-0733","Lids","40.253646","-74.300177","Sun: 11:00 AM-7:00 PM; Mon: 10:00 AM-9:00 PM; Tue: 10:00 AM-9:00 PM; Wed: 10:00 AM-9:00 PM; Thu: 10:00 AM-9:00 PM; Fri: 10:00 AM-9:00 PM; Sat: 10:00 AM-9:00 PM"
"lids.com","https://lids.com/store/lids-livingston-mall/sd-27401255+z-9782750-813350105","Lids Livingston Mall 5610","112 Eisenhower Parkway","Livingston","NJ","07039","US","5610","973-740-0444","Lids","40.776592","-74.353456","Sun: 11:00 AM-7:00 PM; Mon: 10:00 AM-9:30 PM; Tue: 10:00 AM-9:30 PM; Wed: 10:00 AM-9:30 PM; Thu: 10:00 AM-9:30 PM; Fri: 10:00 AM-9:30 PM; Sat: 10:00 AM-9:00 PM"
"lids.com","https://lids.com/store/lids-greenbrier/sd-236987+z-8092664-1536742991","Lids Greenbrier 139","1401 Greenbrier Pkwy, 1088","Chesapeake","VA","23320","US","139","757-424-7440","Lids","36.778376","-76.226019","Sun: 12:00 PM-6:00 PM; Mon: 10:30 AM-7:00 PM; Tue: 10:30 AM-7:00 PM; Wed: 10:30 AM-7:00 PM; Thu: 10:30 AM-7:00 PM; Fri: 10:30 AM-7:00 PM; Sat: 11:00 AM-8:00 PM"
"lids.com","https://lids.com/store/lids-golden-east-crossing/sd-27533327+z-9414582-3122271193","Lids Golden East Crossing 5805","1100 N Wesleyan Blvd  SP5022","Rocky Mount","NC","27804","US","5805","252-985-1150","Lids","35.974139","-77.806564","Sun: 1:00 PM-6:00 PM; Mon: 11:00 AM-7:00 PM; Tue: 11:00 AM-7:00 PM; Wed: 11:00 AM-7:00 PM; Thu: 11:00 AM-7:00 PM; Fri: 11:00 AM-7:00 PM; Sat: 11:00 AM-7:00 PM"
"lids.com","https://lids.com/store/lids-woodbridge-center/sd-38561103+z-9317351-1418250636","Lids Woodbridge Center 5103","252 Woodbridge Ctr Dr","Woodbridge","NJ","07095","US","5103","732-855-5852","Lids","40.554011","-74.300231","Sun: 11:00 AM-5:00 PM; Mon: 10:00 AM-9:00 PM; Tue: 10:00 AM-9:00 PM; Wed: 10:00 AM-9:00 PM; Thu: 10:00 AM-9:00 PM; Fri: 10:00 AM-9:00 PM; Sat: 10:00 AM-9:00 PM"
"lids.com","https://lids.com/store/sports-fan-attic-valley-hills-mall/sd-20007920+z-9342213-2773179386","Sports Fan-Attic Valley Hills Mall 8028","1960 Highway 70 SE SPDE-112","Hickory","NC","28602","US","8028","828-327-4345","Sports Fan-Attic","35.703736","-81.305123","Sun: 11:00 AM-7:00 PM; Mon: 10:00 AM-9:00 PM; Tue: 10:00 AM-9:00 PM; Wed: 10:00 AM-9:00 PM; Thu: 10:00 AM-9:00 PM; Fri: 10:00 AM-9:00 PM; Sat: 10:00 AM-9:00 PM"
"lids.com","https://lids.com/store/lids-lansing-mall/sd-2475+z-928935388-4107689546","Lids Lansing Mall 28","5286 W Saginaw Hwy, 187","Lansing","MI","48917","US","28","517-323-8067","Lids","42.742735","-84.628911","Sun: 12:00 PM-6:00 PM; Mon: 11:00 AM-8:00 PM; Tue: 11:00 AM-8:00 PM; Wed: 11:00 AM-8:00 PM; Thu: 11:00 AM-8:00 PM; Fri: 11:00 AM-8:00 PM; Sat: 11:00 AM-8:00 PM"
"lids.com","https://lids.com/store/lids-lynnhaven-mall/sd-72679096+z-877710-2544634044","Lids Lynnhaven Mall 5117","701 Lynnhaven Pkwy SPC22A","Virginia Beach","VA","23452","US","5117","757-263-4943","Lids","36.8161011","-76.0708641","Sun: 11:00 AM-7:00 PM; Mon: 10:00 AM-9:00 PM; Tue: 10:00 AM-9:00 PM; Wed: 10:00 AM-9:00 PM; Thu: 10:00 AM-9:00 PM; Fri: 10:00 AM-9:00 PM; Sat: 10:00 AM-9:00 PM"
"lids.com","https://lids.com/store/lids-willowbrook-mall/sd-21351456+z-9421018-762826513","Lids Willowbrook Mall 9231","1400 Willowbrook Mall SP2065","Wayne","NJ","07470-6905","US","9231","973-256-0040","Lids","40.9253725","-74.2765441","Sun: 11:00 AM-6:00 PM; Mon: 10:00 AM-9:00 PM; Tue: 10:00 AM-9:00 PM; Wed: 10:00 AM-9:00 PM; Thu: 10:00 AM-9:00 PM; Fri: 10:00 AM-9:00 PM; Sat: 10:00 AM-9:00 PM"
"lids.com","https://lids.com/store/lids-ocean-county-mall/sd-27787031+z-9580205-2572900786","Lids Ocean County Mall 5138","1201 Hooper Ave","Toms River","NJ","08753","US","5138","732-797-0884","Lids","39.981041","-74.178442","Sun: 11:00 AM-6:00 PM; Mon: 10:00 AM-9:30 PM; Tue: 10:00 AM-9:30 PM; Wed: 10:00 AM-9:30 PM; Thu: 10:00 AM-9:30 PM; Fri: 10:00 AM-9:30 PM; Sat: 10:00 AM-9:30 PM"
"lids.com","https://lids.com/store/lids-staten-island-mall/sd-21573580+z-9673377-3606109428","Lids Staten Island Mall 9222","2655 Richmond Ave SPC 1315","Staten Island","NY","10314","US","9222","718-494-3660","Lids","40.5818776","-74.1652624","Sun: 11:00 AM-7:00 PM; Mon: 10:00 AM-9:00 PM; Tue: 10:00 AM-9:00 PM; Wed: 10:00 AM-9:00 PM; Thu: 10:00 AM-9:00 PM; Fri: 10:00 AM-9:00 PM; Sat: 10:00 AM-9:00 PM"
"lids.com","https://lids.com/store/lids-jersey-gardens/sd-27812070+z-9462979-3378393373","Lids Jersey Gardens 5383","651 Kapkowski Rd Sp 2228","Elizabeth","NJ","07208","US","5383","908-289-8811","Lids","40.6600721","-74.17115","Sun: 12:00 PM-6:00 PM; Mon: 10:00 AM-9:00 PM; Tue: 10:00 AM-9:00 PM; Wed: 10:00 AM-9:00 PM; Thu: 10:00 AM-9:00 PM; Fri: 10:00 AM-9:00 PM; Sat: 10:00 AM-9:00 PM"
"lids.com","https://lids.com/store/lids-galleria-at-crystal-run/sd-83332887+z-879797-3201404074","Lids Galleria at Crystal Run 5069","1 Galleria Dr B213","Middletown","NY","10941","US","5069","845-692-7550","Lids","41.4537948","-74.36843","Sun: 11:00 AM-6:00 PM; Mon: 11:00 AM-8:00 PM; Tue: 11:00 AM-8:00 PM; Wed: 11:00 AM-8:00 PM; Thu: 11:00 AM-8:00 PM; Fri: 11:00 AM-8:00 PM; Sat: 11:00 AM-8:00 PM"
"lids.com","https://lids.com/store/lids-locker-room-the-outlet-shoppes-of-the-bluegrass/sd-20783684+z-9833391-951995368","Lids Locker Room 8136","1155 Buck Creek Rd Ste C304","Louisville","KY","40067","US","8136","502-722-3109","Lids Locker Room","38.205052","-85.349058","Sun: 11:00 AM-7:00 PM; Mon: 10:00 AM-7:00 PM; Tue: 10:00 AM-7:00 PM; Wed: 10:00 AM-7:00 PM; Thu: 10:00 AM-7:00 PM; Fri: 10:00 AM-7:00 PM; Sat: 10:00 AM-8:00 PM"
"lids.com","https://lids.com/store/fanatics-by-lids-jersey-gardens/sd-20051472+z-806534-564420041","Fanatics by Lids Jersey Gardens 8535","651 Kapkowski Rd SP1106","Elizabeth","NJ","07201","US","8535","732-943-6758","Lids","40.2243048","-74.0942116","Sun: 12:00 PM-6:00 PM; Mon: 10:00 AM-9:00 PM; Tue: 10:00 AM-9:00 PM; Wed: 10:00 AM-9:00 PM; Thu: 10:00 AM-9:00 PM; Fri: 10:00 AM-9:00 PM; Sat: 10:00 AM-9:00 PM"
"lids.com","https://lids.com/store/lids-monmouth-mall/sd-16911248+z-9174532-3034579708","Lids Monmouth Mall 5214","180 Route 35 South","Eatontown","NJ","07724","US","5214","732-578-0601","Lids","40.2872747","-74.0551273","Sun: 11:00 AM-7:00 PM; Mon: 10:00 AM-9:00 PM; Tue: 10:00 AM-9:00 PM; Wed: 10:00 AM-9:00 PM; Thu: 10:00 AM-9:00 PM; Fri: 10:00 AM-9:00 PM; Sat: 10:00 AM-9:00 PM"
"lids.com","https://lids.com/store/lids-the-empire-outlets/sd-95379347+z-812045-1816184790","Lids The Empire Outlets 6443","55 Richmond Terrace SP101","Staten Island","NY","10301","US","6443","347-934-2898","Lids","40.6441417","-74.0752257","Sun: 12:00 PM-4:00 PM; Mon: 11:00 AM-7:00 PM; Tue: 11:00 AM-7:00 PM; Wed: 11:00 AM-7:00 PM; Thu: 11:00 AM-7:00 PM; Fri: 11:00 AM-7:00 PM; Sat: 11:00 AM-8:00 PM"
"lids.com","https://lids.com/store/lids-westfield-garden-state/sd-94663687+z-868199-296224288","Lids Westfield Garden State 5039","245 Garden State Plaza C-6","Paramus","NJ","07652","US","5039","201-291-9059","Lids","40.918228","-74.07815","Sun: CLOSED-CLOSED; Mon: 10:00 AM-9:00 PM; Tue: 10:00 AM-9:00 PM; Wed: 10:00 AM-9:00 PM; Thu: 10:00 AM-9:00 PM; Fri: 10:00 AM-9:00 PM; Sat: 10:00 AM-9:00 PM"
"lids.com","https://lids.com/store/lids-newport-centre/sd-49116888+z-9908601-1583419262","Lids Newport Centre 5020","30 Mall Dr W","Jersey City","NJ","07310","US","5020","201-626-3222","Lids","40.726803","-74.037936","Sun: 10:00 AM-9:00 PM; Mon: 10:00 AM-9:00 PM; Tue: 10:00 AM-9:00 PM; Wed: 10:00 AM-9:00 PM; Thu: 10:00 AM-9:00 PM; Fri: 10:00 AM-9:00 PM; Sat: 10:00 AM-9:00 PM"
"lids.com","https://lids.com/store/lids-740-broadway/sd-28812492+z-9072119-1272021314","Lids 740 Broadway 6323","740 Broadway  SP740","NEW YORK","NY","10003","US","6323","212-228-7029","Lids","40.729785","-73.992785","Sun: 12:00 PM-6:00 PM; Mon: 11:00 AM-7:00 PM; Tue: 11:00 AM-7:00 PM; Wed: 11:00 AM-7:00 PM; Thu: 11:00 AM-7:00 PM; Fri: 11:00 AM-7:00 PM; Sat: 11:00 AM-7:00 PM"
"lids.com","https://lids.com/store/lids-edinburgh-premium-outlets/sd-16979189+z-9256854-1693026898","Lids Edinburgh Premium Outlets 5821","11745 NE Executive Drive","Edinburgh","IN","46124","US","5821","812-526-6541","Lids","39.311642","-85.959841","Sun: 10:00 AM-9:00 PM; Mon: 10:00 AM-9:00 PM; Tue: 10:00 AM-9:00 PM; Wed: 10:00 AM-9:00 PM; Thu: 10:00 AM-9:00 PM; Fri: 10:00 AM-9:00 PM; Sat: 10:00 AM-9:00 PM"
"lids.com","https://lids.com/store/macys-locker-room-by-lids-herald-square/sd-24671582+z-9544806-3209980799","Macy's Locker Room by LIDS Herald Square 2144","151 W 34TH STREET","New York","NY","10001","US","2144","<MISSING>","Macy's Locker Room by LIDS","40.750792","-73.989526","Sun: 11:00 AM-6:00 PM; Mon: 10:00 AM-9:00 PM; Tue: 10:00 AM-9:00 PM; Wed: 10:00 AM-9:00 PM; Thu: 10:00 AM-9:00 PM; Fri: 10:00 AM-9:00 PM; Sat: 10:00 AM-9:00 PM"
"lids.com","https://lids.com/store/lids-manhattan-mall/sd-38127404+z-853549-3660895420","Lids Manhattan Mall 5174","901 6th Ave","New York","NY","10001","US","5174","212-868-0898","Lids","40.7498","-73.987766","Sun: 12:00 PM-6:00 PM; Mon: 11:00 AM-7:00 PM; Tue: 11:00 AM-7:00 PM; Wed: 11:00 AM-7:00 PM; Thu: 11:00 AM-7:00 PM; Fri: 11:00 AM-7:00 PM; Sat: 11:00 AM-7:00 PM"
"lids.com","https://lids.com/store/yankees-clubhouse-yankees-clubhouse-42nd-street-ent-center/sd-76777155+z-79603-160391551","Yankees Clubhouse 9040","245 W 42nd Street SP1","New York","NY","10036","US","9040","212-768-9779","Yankees Clubhouse","40.757053","-73.988936","Sun: 11:00 AM-7:00 PM; Mon: 11:00 AM-7:00 PM; Tue: 11:00 AM-7:00 PM; Wed: 11:00 AM-7:00 PM; Thu: 11:00 AM-7:00 PM; Fri: 11:00 AM-7:00 PM; Sat: 11:00 AM-7:00 PM"
"lids.com","https://lids.com/store/lids-42nd-street-entertainment-center/sd-27947637+z-9850834-3364633173","Lids 42nd Street Entertainment Center 5594","239 West 42nd Street","New York","NY","10036","US","5594","212-575-1711","Lids","40.756878","-73.988536","Sun: 12:00 PM-6:00 PM; Mon: 11:00 AM-7:00 PM; Tue: 11:00 AM-7:00 PM; Wed: 11:00 AM-7:00 PM; Thu: 11:00 AM-7:00 PM; Fri: 11:00 AM-7:00 PM; Sat: 11:00 AM-7:00 PM"
"lids.com","https://lids.com/store/lids-paramount-on-broadway/sd-28581769+z-9367057-2917977238","Lids Paramount on Broadway 6363","1501 Broadway SPUG-6","NEW YORK","NY","10036","US","6363","212-730-0429","Lids","40.7571537","-73.9865311","Sun: 11:00 AM-7:00 PM; Mon: 11:00 AM-7:00 PM; Tue: 11:00 AM-7:00 PM; Wed: 11:00 AM-7:00 PM; Thu: 11:00 AM-7:00 PM; Fri: 11:00 AM-7:00 PM; Sat: 11:00 AM-7:00 PM"
"lids.com","https://lids.com/store/lids-two-times-east/sd-28819922+z-9418651-2535692855","Lids Two Times East 6300","Two Times Square East","NEW YORK","NY","10036","US","6300","212-757-0694","Lids","40.759681","-73.984723","Sun: 12:00 PM-6:00 PM; Mon: 11:00 AM-7:00 PM; Tue: 11:00 AM-7:00 PM; Wed: 11:00 AM-7:00 PM; Thu: 11:00 AM-7:00 PM; Fri: 11:00 AM-7:00 PM; Sat: 11:00 AM-7:00 PM"
"lids.com","https://lids.com/store/yankees-clubhouse-yankees-clubhouse-5th-ave-ny/sd-21881364+z-9404931-2221327814","Yankees Clubhouse 9028","393 5th Ave SP1","New York","NY","10016","US","9028","212-686-1070","Yankees Clubhouse","40.7497967","-73.9830664","Sun: 12:00 PM-7:00 PM; Mon: 11:00 AM-7:00 PM; Tue: 11:00 AM-7:00 PM; Wed: 11:00 AM-7:00 PM; Thu: 11:00 AM-7:00 PM; Fri: 11:00 AM-7:00 PM; Sat: 11:00 AM-7:00 PM"
"lids.com","https://lids.com/store/lids-woodbury-commons-premium-outlets/sd-38246718+z-9496512-1423205099","Lids Woodbury Commons Premium Outlets 5217","449 Evergreen Court","Central Valley","NY","10917","US","5217","845-928-4904","Lids","41.316935","-74.126951","Sun: 10:00 AM-9:00 PM; Mon: 10:00 AM-6:00 PM; Tue: 10:00 AM-6:00 PM; Wed: 10:00 AM-6:00 PM; Thu: 10:00 AM-6:00 PM; Fri: 10:00 AM-6:00 PM; Sat: 10:00 AM-9:00 PM"
"lids.com","https://lids.com/store/lids-woodbury-common-premium-outlets/sd-51289165+z-79645-429274847","Woodbury Common Premium Outlets","KI11 Racetrack Ln","Central Valley","NY","10917","US","6629","845-604-0108","Lids","41.3139174","-74.1257712","Sun: 11:00 AM-6:00 PM; Mon: 10:00 AM-9:00 PM; Tue: 10:00 AM-9:00 PM; Wed: 10:00 AM-9:00 PM; Thu: 10:00 AM-9:00 PM; Fri: 10:00 AM-9:00 PM; Sat: 10:00 AM-9:00 PM"
"lids.com","https://lids.com/store/yankees-clubhouse-yankees-clubhouse-7th-ave-ny/sd-21229356+z-9464515-3010746190","Yankees Clubhouse 9041","745 7th Avenue, Suite 434 SPD1","New York","NY","10019","US","9041","212-391-0360","Yankees Clubhouse","40.760636","-73.983037","Sun: 12:00 PM-6:00 PM; Mon: 11:00 AM-6:00 PM; Tue: 11:00 AM-6:00 PM; Wed: 11:00 AM-6:00 PM; Thu: 11:00 AM-6:00 PM; Fri: 11:00 AM-6:00 PM; Sat: 11:00 AM-7:00 PM"
"lids.com","https://lids.com/store/lids-castleton-square/sd-3439+z-931720945-3890154916","Lids Castleton Square 16","6020 E 82nd St Sp 346A","Indianapolis","IN","46250","US","16","317-849-5059","Lids","39.904342","-86.0631561","Sun: 10:00 AM-9:00 PM; Mon: 10:00 AM-9:00 PM; Tue: 10:00 AM-9:00 PM; Wed: 10:00 AM-9:00 PM; Thu: 10:00 AM-9:00 PM; Fri: 10:00 AM-9:00 PM; Sat: 10:00 AM-9:00 PM"
"lids.com","https://lids.com/store/lids-locker-room-castleton-square/sd-20003971+z-9217607-1532499597","Lids Locker Room Castleton Square 8064","6020 E 82nd St    SP34","Indianapolis","IN","46250","US","8064","317-915-1425","Lids Locker Room","39.908589","-86.06536","Sun: 11:00 AM-6:00 PM; Mon: 10:00 AM-9:00 PM; Tue: 10:00 AM-9:00 PM; Wed: 10:00 AM-9:00 PM; Thu: 10:00 AM-9:00 PM; Fri: 10:00 AM-9:00 PM; Sat: 10:00 AM-9:00 PM"
"lids.com","https://lids.com/store/macys-locker-room-by-lids-castleton-square/sd-35001131+z-9422626-3265193316","Macy's Locker Room by LIDS Castleton Square 2008","6020 E 82nd St","Indianapolis","IN","46250","US","2008","317-579-4500","Macy's Locker Room by LIDS","39.9092285","-86.0653862","Sun: 11:00 AM-6:00 PM; Mon: 10:00 AM-9:00 PM; Tue: 10:00 AM-9:00 PM; Wed: 10:00 AM-9:00 PM; Thu: 10:00 AM-9:00 PM; Fri: 10:00 AM-9:00 PM; Sat: 10:00 AM-9:00 PM"
"lids.com","https://lids.com/store/lids-concord-mills/sd-49472002+z-79786-3109525220","Lids Concord Mills 5382","8111 Concord Mills Blvd Sp663","Concord","NC","28027","US","5382","704-979-5437","Lids","35.369222","-80.722126","Sun: 12:00 PM-7:00 PM; Mon: 10:00 AM-9:00 PM; Tue: 10:00 AM-9:00 PM; Wed: 10:00 AM-9:00 PM; Thu: 10:00 AM-9:00 PM; Fri: 10:00 AM-9:00 PM; Sat: 10:00 AM-9:00 PM"
"lids.com","https://lids.com/store/lids-locker-room-concord-mills/sd-53112120+z-838384-2411515980","Lids Locker Room Concord Mills 8098","8111 Concord Mills Blvd SP606","CONCORD","NC","28027","US","8098","704-971-1633","Lids Locker Room","35.369222","-80.722126","Sun: 11:00 AM-7:00 PM; Mon: 10:00 AM-9:00 PM; Tue: 10:00 AM-9:00 PM; Wed: 10:00 AM-9:00 PM; Thu: 10:00 AM-9:00 PM; Fri: 10:00 AM-9:00 PM; Sat: 10:00 AM-9:00 PM"
"lids.com","https://lids.com/store/lids-kings-plaza/sd-27112880+z-9323697-1715352066","Lids Kings Plaza 5062","5385 Kings Plaza SP2227","Brooklyn","NY","11234","US","5062","718-338-7790","Lids","40.6102073","-73.9192554","Sun: 11:00 AM-8:00 PM; Mon: 10:00 AM-9:30 PM; Tue: 10:00 AM-9:30 PM; Wed: 10:00 AM-9:30 PM; Thu: 10:00 AM-9:30 PM; Fri: 10:00 AM-9:30 PM; Sat: 10:00 AM-9:30 PM"
"lids.com","https://lids.com/store/lids-fashion-mall-at-keystone/sd-84063537+z-78673-1092784674","Fashion Mall at Keystone","8702 Keystone Crossing SP150B","Indianapolis","IN","46240","US","6624","317-450-9572","Lids","39.9139901","-86.1093871","Sun: 12:00 PM-6:00 PM; Mon: 10:00 AM-9:00 PM; Tue: 10:00 AM-9:00 PM; Wed: 10:00 AM-9:00 PM; Thu: 10:00 AM-9:00 PM; Fri: 10:00 AM-9:00 PM; Sat: 10:00 AM-9:00 PM"
"lids.com","https://lids.com/store/fanatics-by-lids-carolina-premium/sd-19387884+z-9109765-1424959735","Fanatics by Lids Carolina Premium 8516","1025 Industrial Park Dr SP1100","Smithfield","NC","27577","US","8516","919-437-7277","Lids","35.507491","-78.316625","Sun: 10:00 AM-9:00 PM; Mon: 10:00 AM-9:00 PM; Tue: 10:00 AM-9:00 PM; Wed: 10:00 AM-9:00 PM; Thu: 10:00 AM-9:00 PM; Fri: 10:00 AM-9:00 PM; Sat: 10:00 AM-9:00 PM"
"lids.com","https://lids.com/store/macys-locker-room-by-lids-oxmoor-center/sd-35230833+z-9007302-3231743813","Macy's Locker Room by LIDS Oxmoor Center 2180","7900 SHELBYVILLE ROAD","Louisville","KY","40222","US","2180","502-423-3350","Macy's Locker Room by LIDS","38.247327","-85.610049","Sun: 11:00 AM-6:00 PM; Mon: 10:00 AM-9:00 PM; Tue: 10:00 AM-9:00 PM; Wed: 10:00 AM-9:00 PM; Thu: 10:00 AM-9:00 PM; Fri: 10:00 AM-9:00 PM; Sat: 10:00 AM-9:00 PM"
"lids.com","https://lids.com/store/lids-northlake-mall/sd-27427383+z-9303064-2794666357","Lids Northlake Mall 5865","6801 Northlake Mall Dr SP137","Charlotte","NC","28216","US","5865","704-921-2893","Lids","35.352549","-80.851181","Sun: 12:00 PM-6:00 PM; Mon: 11:00 AM-8:00 PM; Tue: 11:00 AM-8:00 PM; Wed: 11:00 AM-8:00 PM; Thu: 11:00 AM-8:00 PM; Fri: 11:00 AM-8:00 PM; Sat: 11:00 AM-8:00 PM"
"lids.com","https://lids.com/store/lids-locker-room-northlake-mall/sd-20558197+z-9980553-530519676","Lids Locker Room Northlake Mall 8038","6801 Northlake Mall Drive SP109","Charlotte","NC","28216","US","8038","704-599-2025","Lids Locker Room","35.352549","-80.851181","Sun: 12:00 PM-6:00 PM; Mon: 11:00 AM-8:00 PM; Tue: 11:00 AM-8:00 PM; Wed: 11:00 AM-8:00 PM; Thu: 11:00 AM-8:00 PM; Fri: 11:00 AM-8:00 PM; Sat: 11:00 AM-8:00 PM"
"lids.com","https://lids.com/store/lids-mall-st-matthews/sd-40221940+z-837014-2928270449","Lids Mall St. Matthews 6086","5000 Shelbyville Road  SP1695","Louisville","KY","40207","US","6086","502-896-1347","Lids","38.245499","-85.625206","Sun: 11:00 AM-7:00 PM; Mon: 10:00 AM-9:00 PM; Tue: 10:00 AM-9:00 PM; Wed: 10:00 AM-9:00 PM; Thu: 10:00 AM-9:00 PM; Fri: 10:00 AM-9:00 PM; Sat: 10:00 AM-9:00 PM"
"lids.com","https://lids.com/store/locker-room-by-lids-mall-st-matthews/sd-31354435+z-9290731-3585683098","Locker Room by LIDS Mall St. Matthews 8202","5000 Shelbyville Rd SP1","LOUISVILLE","KY","40207","US","8202","502-896-2111","Locker Room by LIDS","38.245499","-85.625206","Sun: 11:00 AM-7:00 PM; Mon: 10:00 AM-9:00 PM; Tue: 10:00 AM-9:00 PM; Wed: 10:00 AM-9:00 PM; Thu: 10:00 AM-9:00 PM; Fri: 10:00 AM-9:00 PM; Sat: 10:00 AM-9:00 PM"
"lids.com","https://lids.com/store/macys-locker-room-by-lids-greenwood-park-mall/sd-35562965+z-9713597-2411815351","Macy's Locker Room by LIDS 2179","1251 US 31 NORTH SP1","Greenwood, In","IN","46142","US","2179","<MISSING>","Macy's Locker Room by LIDS","39.631588","-86.12102","Sun: 11:00 AM-6:00 PM; Mon: 10:00 AM-9:00 PM; Tue: 10:00 AM-9:00 PM; Wed: 10:00 AM-9:00 PM; Thu: 10:00 AM-9:00 PM; Fri: 10:00 AM-9:00 PM; Sat: 10:00 AM-9:00 PM"
"lids.com","https://lids.com/store/lids-greenwood-park-mall/sd-4519+z-982630046-3438579451","Lids Greenwood Park Mall 18","1251 US Hwy 31 N, D-1A","Greenwood","IN","46142","US","18","317-881-7290","Lids","39.631531","-86.121454","Sun: 12:00 PM-6:00 PM; Mon: 10:00 AM-9:00 PM; Tue: 10:00 AM-9:00 PM; Wed: 10:00 AM-9:00 PM; Thu: 10:00 AM-9:00 PM; Fri: 10:00 AM-9:00 PM; Sat: 10:00 AM-9:00 PM"
"lids.com","https://lids.com/store/lids-palisades-center/sd-38869103+z-868067-2635066196","Lids Palisades Center 5823","1000 Palisades Center Dr G305","West Nyack","NY","10994","US","5823","845-348-1574","Lids","41.0972597","-73.9562743","Sun: 11:00 AM-7:00 PM; Mon: 10:00 AM-9:30 PM; Tue: 10:00 AM-9:30 PM; Wed: 10:00 AM-9:30 PM; Thu: 10:00 AM-9:30 PM; Fri: 10:00 AM-9:30 PM; Sat: 10:00 AM-9:30 PM"
"lids.com","https://lids.com/store/macys-locker-room-by-lids-queens-center/sd-13445837+z-9657732-2437609120","Macy's Locker Room by LIDS Queens Center 2034","90 15 Queens Blvd SPukn","Elmhurst","NY","11373","US","2034","<MISSING>","Macy's Locker Room by LIDS","40.7344834","-73.8696793","Sun: 11:00 AM-6:00 PM; Mon: 10:00 AM-9:00 PM; Tue: 10:00 AM-9:00 PM; Wed: 10:00 AM-9:00 PM; Thu: 10:00 AM-9:00 PM; Fri: 10:00 AM-9:00 PM; Sat: 10:00 AM-9:00 PM"
"lids.com","https://lids.com/store/lids-queens-center/sd-38939757+z-9329674-861378449","Lids Queens Center 5482","9015 Queens Blvd SP3016","Elmhurst","NY","11373","US","5482","718-592-0085","Lids","40.734803","-73.869567","Sun: 10:00 AM-9:30 PM; Mon: 10:00 AM-9:30 PM; Tue: 10:00 AM-9:30 PM; Wed: 10:00 AM-9:30 PM; Thu: 10:00 AM-9:30 PM; Fri: 10:00 AM-9:30 PM; Sat: 10:00 AM-9:30 PM"
"lids.com","https://lids.com/store/lids-circle-centre-mall/sd-1431+z-977318203-2060221721","Lids Circle Centre Mall 38","49 W Maryland St, C10 Box 169","Indianapolis","IN","46204","US","38","317-972-0694","Lids","39.7713425","-86.1573709","Sun: 12:00 PM-6:00 PM; Mon: 11:00 AM-7:00 PM; Tue: 11:00 AM-7:00 PM; Wed: 11:00 AM-7:00 PM; Thu: 11:00 AM-7:00 PM; Fri: 11:00 AM-7:00 PM; Sat: 11:00 AM-7:00 PM"
"lids.com","https://lids.com/store/locker-room-by-lids-circle-centre-mall/sd-10790750+z-9278405-397382426","Clubhouse Circle Centre Mall 9275","49 W Maryland St SPE21","Indianapolis","IN","46204","US","9275","317-686-1107","Locker Room by LIDS","39.7663952","-86.1597752","Sun: 12:00 PM-6:00 PM; Mon: 11:00 AM-7:00 PM; Tue: 11:00 AM-7:00 PM; Wed: 11:00 AM-7:00 PM; Thu: 11:00 AM-7:00 PM; Fri: 11:00 AM-7:00 PM; Sat: 11:00 AM-7:00 PM"
"lids.com","https://lids.com/store/macys-locker-room-by-lids-cross-county-center/sd-24221480+z-9810893-1807642613","Macy's Locker Room by LIDS 2032","8000 Mall Walk SPunk","Yonkers","NY","10704","US","2032","<MISSING>","Macy's Locker Room by LIDS","40.919976","-73.859549","Sun: 11:00 AM-6:00 PM; Mon: 10:00 AM-9:00 PM; Tue: 10:00 AM-9:00 PM; Wed: 10:00 AM-9:00 PM; Thu: 10:00 AM-9:00 PM; Fri: 10:00 AM-9:00 PM; Sat: 10:00 AM-9:00 PM"
"lids.com","https://lids.com/store/lids-the-crossroads/sd-347930+z-8486674-61017572","Lids The Crossroads 127","6650 S Westnedge 250","Portage","MI","49024","US","127","269-321-7994","Lids","42.220494","-85.594363","Sun: 11:00 AM-7:00 PM; Mon: 11:00 AM-8:00 PM; Tue: 11:00 AM-8:00 PM; Wed: 11:00 AM-8:00 PM; Thu: 11:00 AM-8:00 PM; Fri: 11:00 AM-8:00 PM; Sat: 11:00 AM-8:00 PM"
"lids.com","https://lids.com/store/lids-cross-county-center/sd-40256404+z-9538104-1443152378","Lids Cross County Center 6384","8000 Mall Walk SP5090","Yonkers","NY","10704","US","6384","914-375-0090","Lids","40.928423","-73.854313","Sun: 11:00 AM-7:00 PM; Mon: 10:00 AM-8:00 PM; Tue: 10:00 AM-8:00 PM; Wed: 10:00 AM-8:00 PM; Thu: 10:00 AM-8:00 PM; Fri: 10:00 AM-8:00 PM; Sat: 10:00 AM-9:30 PM"
"lids.com","https://lids.com/store/lids-green-tree-mall/sd-42+z-866452845-2978062534","Lids Green Tree Mall 8","757 E Hwy 131","Clarksville","IN","47129","US","8","812-288-1117","Lids","38.3164441","-85.7587589","Sun: 12:00 PM-7:00 PM; Mon: 11:00 AM-8:00 PM; Tue: 11:00 AM-8:00 PM; Wed: 11:00 AM-8:00 PM; Thu: 11:00 AM-8:00 PM; Fri: 11:00 AM-8:00 PM; Sat: 11:00 AM-8:00 PM"
"lids.com","https://lids.com/store/lids-the-mall-at-bay-plaza/sd-17592479+z-9497244-676753020","Lids The Mall at Bay Plaza 6422","200 Baychester Ave SP222","Bronx","NY","10475","US","6422","718-379-2850","Lids","40.863582","-73.829254","Sun: 10:00 AM-9:00 PM; Mon: 10:00 AM-10:00 PM; Tue: 10:00 AM-10:00 PM; Wed: 10:00 AM-10:00 PM; Thu: 10:00 AM-10:00 PM; Fri: 10:00 AM-10:00 PM; Sat: 9:00 AM-11:00 PM"
"lids.com","https://lids.com/store/lids-jefferson-mall/sd-21+z-9841009124-2369008146","Lids Jefferson Mall 9","4801 Outer Loop 248","Louisville","KY","40219","US","9","502-968-3176","Lids","38.140638","-85.671408","Sun: 11:00 AM-7:00 PM; Mon: 11:00 AM-7:00 PM; Tue: 11:00 AM-7:00 PM; Wed: 11:00 AM-7:00 PM; Thu: 11:00 AM-7:00 PM; Fri: 11:00 AM-7:00 PM; Sat: 11:00 AM-7:00 PM"
"lids.com","https://lids.com/store/hatworld-lafayette-square/sd-2338+z-83279255-3358986001","HatWorld Lafayette Square 15","3919 Lafayette Rd, 285","Indianapolis","IN","46254","US","15","317-347-1105","HatWorld","39.830126","-86.236836","Sun: 12:00 PM-8:00 PM; Mon: 11:00 AM-8:00 PM; Tue: 11:00 AM-8:00 PM; Wed: 11:00 AM-8:00 PM; Thu: 11:00 AM-8:00 PM; Fri: 11:00 AM-8:00 PM; Sat: 11:00 AM-8:00 PM"
"lids.com","https://lids.com/store/lids-green-acres-mall/sd-16337462+z-804802-432414502","Lids Green Acres Mall 5076","2052 Green Acres Mall SP2224B","Valley Stream","NY","11581","US","5076","516-568-3093","Lids","40.6631979","-73.7187662","Sun: 10:30 AM-8:00 PM; Mon: 9:30 AM-10:30 PM; Tue: 9:30 AM-10:30 PM; Wed: 9:30 AM-10:30 PM; Thu: 9:30 AM-10:30 PM; Fri: 9:30 AM-10:30 PM; Sat: 9:30 AM-10:30 PM"
"lids.com","https://lids.com/store/lids-locker-room-eastridge/sd-19224836+z-9596527-3291646646","Lids Locker Room Eastridge 8043","246 N New Hope Road SP210","Gastonia","NC","28054","US","8043","704-852-9088","Lids Locker Room","35.2528422","-81.1526976","Sun: 12:00 PM-6:00 PM; Mon: 10:00 AM-8:00 PM; Tue: 10:00 AM-8:00 PM; Wed: 10:00 AM-8:00 PM; Thu: 10:00 AM-8:00 PM; Fri: 10:00 AM-8:00 PM; Sat: 10:00 AM-9:00 PM"
"lids.com","https://lids.com/store/lids-galleria-at-white-plains/sd-27667437+z-9386528-1423362168","Lids Galleria at White Plains 5074","100 Main St","White Plains","NY","10601","US","5074","914-328-5536","Lids","41.031687","-73.769918","Sun: 11:00 AM-8:00 PM; Mon: 11:00 AM-8:00 PM; Tue: 11:00 AM-8:00 PM; Wed: 11:00 AM-8:00 PM; Thu: 11:00 AM-8:00 PM; Fri: 11:00 AM-8:00 PM; Sat: 11:00 AM-9:00 PM"
"lids.com","https://lids.com/store/lids-asheville-mall/sd-61806332+z-73654-113022320","Lids Asheville Mall 5279","3 S Tunnel Rd","Asheville","NC","28805","US","5279","828-298-2811","Lids","35.580897","-82.526669","Sun: 12:00 PM-6:00 PM; Mon: 11:00 AM-8:00 PM; Tue: 11:00 AM-8:00 PM; Wed: 11:00 AM-8:00 PM; Thu: 11:00 AM-8:00 PM; Fri: 11:00 AM-8:00 PM; Sat: 11:00 AM-8:00 PM"
"lids.com","https://lids.com/store/lids-poughkeepsie-galleria/sd-16551742+z-896831-1981940897","Lids Poughkeepsie Galleria 5068","2001 South Road D213","Poughkeepsie","NY","12601","US","5068","845-298-0970","Lids","41.6262842","-73.9206668","Sun: 11:00 AM-6:00 PM; Mon: 10:00 AM-9:30 PM; Tue: 10:00 AM-9:30 PM; Wed: 10:00 AM-9:30 PM; Thu: 10:00 AM-9:30 PM; Fri: 10:00 AM-9:30 PM; Sat: 10:00 AM-9:30 PM"
"lids.com","https://lids.com/store/lids-greenville-mall/sd-39287020+z-9683917-2135793694","Greenville Mall","714 Greenville Blvd SE SP22","Greenville","NC","27858","US","6638","252-751-3468","Lids","35.5856181","-77.3669","Sun: 11:00 AM-6:00 PM; Mon: 10:00 AM-9:00 PM; Tue: 10:00 AM-9:00 PM; Wed: 10:00 AM-9:00 PM; Thu: 10:00 AM-9:00 PM; Fri: 10:00 AM-9:00 PM; Sat: 10:00 AM-9:00 PM"
